[{"s_id":"1299","acct_no":"100461","sname":"M N.WICKREMASINGHE","saddress":"Lanka Filling Station","scity":"KURUNEGALA","default_depot":"LBD Kurunegala","slatitude":7.48303,"slongitude":80.353477,"stype":"CPC_dealer","sproducts":"LAD,LSD,95Petrol,92Petrol","petrol_nf":"","diesel_nf":"","stfhours":"no","pno":"no","sdistance":"2.413","master_route_id":"0","master_route_name":null,"area":"","flood":"0","LAD_status":"Y","LSD_status":"Y","LK_status":"N","95Petrol_status":"Y","92Petrol_status":"Y"},{"s_id":"2","acct_no":"100004","sname":"WELFARE ASSOCIATION SL AIR FORCE","saddress":"No.403, Main Street, Negombo - Copra Junction","scity":"Negombo - Copra Junction","default_depot":"Muthurajawela Terminal","slatitude":7.214408,"slongitude":79.846893,"stype":"CPC_dealer","sproducts":"LAD,LSD,95Petrol,92Petrol","petrol_nf":"no","diesel_nf":"no","stfhours":"no","pno":"no","sdistance":"0","master_route_id":"0","master_route_name":null,"area":"","flood":"0","LAD_status":"Y","LSD_status":"Y","LK_status":"N","95Petrol_status":"Y","92Petrol_status":"Y"},{"s_id":"4","acct_no":"100016","sname":"U D.SOMARATNA","saddress":"Minneriya","scity":"Minneriya","default_depot":"LBD Kurunegala","slatitude":8.038865,"slongitude":80.905571,"stype":"CPC_dealer","sproducts":"LAD,LK,92Petrol","petrol_nf":"","diesel_nf":"","stfhours":"no","pno":"no","sdistance":"103.237","master_route_id":"0","master_route_name":null,"area":"","flood":"0","LAD_status":"y","LSD_status":null,"LK_status":null,"95Petrol_status":null,"92Petrol_status":null},{"s_id":"5","acct_no":"100373","sname":"ALAWWA MPCS LTD","saddress":"No.19,colombo Road, Alawwa","scity":"Alawwa","default_depot":"Muthurajawela Terminal","slatitude":7.294089,"slongitude":80.240273,"stype":"CPC_dealer","sproducts":"LAD,LK,92Petrol","petrol_nf":"","diesel_nf":"","stfhours":"","pno":"","sdistance":"0","master_route_id":"0","master_route_name":null,"area":"","flood":"0","LAD_status":"Y","LSD_status":"N","LK_status":"Y","95Petrol_status":"N","92Petrol_status":"Y"},{"s_id":"6","acct_no":"100025","sname":"MAPAGUNARATNE M M N S B","saddress":"No.42, Wariyagoda","scity":"Wariyagoda","default_depot":"Muthurajawela Terminal","slatitude":7.291979,"slongitude":80.239502,"stype":"CPC_dealer","sproducts":"","petrol_nf":"","diesel_nf":"","stfhours":"","pno":"","sdistance":"0","master_route_id":"0","master_route_name":null,"area":"","flood":"0","LAD_status":null,"LSD_status":null,"LK_status":null,"95Petrol_status":null,"92Petrol_status":null},{"s_id":"7","acct_no":"100032","sname":"L.W.CABRAAL","saddress":"No.105,kandy Road,kiribathgoda","scity":"Kiribathgoda","default_depot":"Muthurajawela Terminal","slatitude":6.97958,"slongitude":79.928375,"stype":"CPC_dealer","sproducts":"LAD,92Petrol","petrol_nf":"","diesel_nf":"","stfhours":"","pno":"","sdistance":"0","master_route_id":"0","master_route_name":null,"area":"","flood":"0","LAD_status":"Y","LSD_status":"N","LK_status":"N","95Petrol_status":"N","92Petrol_status":"Y"},{"s_id":"10","acct_no":"100053","sname":"TRINCOMALEE MPCS LTD","saddress":"Lanka Filling Station","scity":"Trincomalee","default_depot":"LBD Kurunegala","slatitude":8.576436,"slongitude":81.234283,"stype":"CPC_dealer","sproducts":"LAD,LK,95Petrol,92Petrol","petrol_nf":"","diesel_nf":"","stfhours":"no","pno":"no","sdistance":"166.947","master_route_id":"0","master_route_name":null,"area":"","flood":"0","LAD_status":"Y","LSD_status":"N","LK_status":"Y","95Petrol_status":"Y","92Petrol_status":"Y"},{"s_id":"12","acct_no":"100056","sname":"MAHO MPCS LTD","saddress":"Anuradhapura Road, Daladagama,maho","scity":"Maho","default_depot":"Muthurajawela Terminal","slatitude":7.822608,"slongitude":80.249779,"stype":"CPC_dealer","sproducts":"LAD,LK,92Petrol","petrol_nf":"","diesel_nf":"","stfhours":"","pno":"","sdistance":"0","master_route_id":"0","master_route_name":null,"area":"","flood":"0","LAD_status":"Y","LSD_status":"N","LK_status":"Y","95Petrol_status":"N","92Petrol_status":"Y"},{"s_id":"13","acct_no":"100199","sname":"SISIRA TRADING COMPANY (PVT) LTD","saddress":"No.131, Negambo Road,narammala","scity":"Narammala","default_depot":"Muthurajawela Terminal","slatitude":7.432251,"slongitude":80.214928,"stype":"CPC_dealer","sproducts":"LAD,LK,92Petrol","petrol_nf":"","diesel_nf":"","stfhours":"","pno":"","sdistance":"0","master_route_id":"0","master_route_name":null,"area":"","flood":"0","LAD_status":"Y","LSD_status":"N","LK_status":"Y","95Petrol_status":"N","92Petrol_status":"Y"},{"s_id":"14","acct_no":"100063","sname":"CHANDANA FILLING STATION","saddress":"Negombo - Kurunegala Road,narammala","scity":"Narammala","default_depot":"Muthurajawela Terminal","slatitude":7.436151,"slongitude":80.221748,"stype":"CPC_dealer","sproducts":"LAD,LSD,LK,95Petrol,92Petrol","petrol_nf":"","diesel_nf":"","stfhours":"","pno":"","sdistance":"0","master_route_id":"0","master_route_name":null,"area":"","flood":"0","LAD_status":"Y","LSD_status":"Y","LK_status":"Y","95Petrol_status":"Y","92Petrol_status":"Y"},{"s_id":"15","acct_no":"100064","sname":"LANKA FILLING STATION","saddress":"Kobeigane","scity":"Kobeigane","default_depot":"Muthurajawela Terminal","slatitude":7.656303,"slongitude":80.126495,"stype":"CPC_dealer","sproducts":"LAD,LK,92Petrol","petrol_nf":"","diesel_nf":"","stfhours":"","pno":"","sdistance":"0","master_route_id":"0","master_route_name":null,"area":"","flood":"0","LAD_status":"Y","LSD_status":"N","LK_status":"Y","95Petrol_status":"N","92Petrol_status":"Y"},{"s_id":"17","acct_no":"100072","sname":"LAKSHMI JAYAWARDANA LFS","saddress":"Kadawatha","scity":"Kadawatha","default_depot":"Muthurajawela Terminal","slatitude":7.001673,"slongitude":79.950607,"stype":"CPC_dealer","sproducts":"LAD,LK,92Petrol","petrol_nf":"","diesel_nf":"","stfhours":"","pno":"","sdistance":"0","master_route_id":"0","master_route_name":null,"area":"","flood":"0","LAD_status":"Y","LSD_status":"N","LK_status":"Y","95Petrol_status":"N","92Petrol_status":"Y"},{"s_id":"18","acct_no":"100156","sname":"LANKA FILLING STATION","saddress":"Dilki - Kadawatha","scity":"Dilki - Kadawatha","default_depot":"Muthurajawela Terminal","slatitude":7.001117,"slongitude":79.950302,"stype":"CPC_dealer","sproducts":"LAD,92Petrol","petrol_nf":"","diesel_nf":"","stfhours":"","pno":"","sdistance":"0","master_route_id":"0","master_route_name":null,"area":"","flood":"0","LAD_status":"Y","LSD_status":"N","LK_status":"N","95Petrol_status":"N","92Petrol_status":"Y"},{"s_id":"19","acct_no":"100073","sname":"ABUTHAHIR","saddress":"Puttalam","scity":"Puttalam","default_depot":"Muthurajawela Terminal","slatitude":8.03053,"slongitude":79.828751,"stype":"CPC_dealer","sproducts":"LAD,LK,92Petrol","petrol_nf":"","diesel_nf":"","stfhours":"","pno":"","sdistance":"0","master_route_id":"0","master_route_name":null,"area":"","flood":"0","LAD_status":"Y","LSD_status":"N","LK_status":"Y","95Petrol_status":"N","92Petrol_status":"Y"},{"s_id":"20","acct_no":"105001","sname":"PD SENEVIRATNE","saddress":",polonnaruwa Road,habarana","scity":"Habarana","default_depot":"LBD Kurunegala","slatitude":8.039935,"slongitude":80.755615,"stype":"CPC_dealer","sproducts":"LAD,LK,95Petrol,92Petrol","petrol_nf":"no","diesel_nf":"no","stfhours":"no","pno":"no","sdistance":"79.095","master_route_id":"0","master_route_name":null,"area":"","flood":"0","LAD_status":"Y","LSD_status":"N","LK_status":"Y","95Petrol_status":"Y","92Petrol_status":"Y"},{"s_id":"1100","acct_no":"100083","sname":"M.H.M.Mohideen","saddress":"Lanka Filling Station","scity":"Galenbindunuwewa","default_depot":"LBD Anuradhapura","slatitude":8.290508,"slongitude":80.717789,"stype":"CPC_dealer","sproducts":"LAD,LK,92Petrol","petrol_nf":"","diesel_nf":"","stfhours":"no","pno":"no","sdistance":"0","master_route_id":"0","master_route_name":null,"area":"","flood":"0","LAD_status":"Y","LSD_status":"N","LK_status":"Y","95Petrol_status":"N","92Petrol_status":"Y"},{"s_id":"23","acct_no":"100084","sname":"WARIYAPOLA MPCS LTD","saddress":"Lanka Filling Station","scity":"Katupotha","default_depot":"Muthurajawela Terminal","slatitude":7.534212,"slongitude":80.18792,"stype":"CPC_dealer","sproducts":"LAD,LK,92Petrol","petrol_nf":"","diesel_nf":"","stfhours":"","pno":"","sdistance":"0","master_route_id":"0","master_route_name":null,"area":"","flood":"0","LAD_status":"Y","LSD_status":"N","LK_status":"Y","95Petrol_status":"N","92Petrol_status":"Y"},{"s_id":"26","acct_no":"100098","sname":"S AND J FUEL DISTRIBUTORS","saddress":"Lanka Filling Station","scity":"Hingurakgoda","default_depot":"LBD Kurunegala","slatitude":8.040647,"slongitude":80.950539,"stype":"CPC_dealer","sproducts":"LAD,92Petrol","petrol_nf":"","diesel_nf":"","stfhours":"no","pno":"no","sdistance":"111.558","master_route_id":"0","master_route_name":null,"area":"","flood":"0","LAD_status":"Y","LSD_status":"N","LK_status":"N","95Petrol_status":"N","92Petrol_status":"Y"},{"s_id":"27","acct_no":"100234","sname":"P K CHITHRA DAMAYANTHI","saddress":"Arakawila - Handapangoda","scity":"Handapangoda","default_depot":"Kolonnawa Terminal","slatitude":6.786196,"slongitude":80.144394,"stype":"CPC_dealer","sproducts":"LAD,LSD,LK,95Petrol,92Petrol","petrol_nf":"no","diesel_nf":"no","stfhours":"no","pno":"no","sdistance":"0","master_route_id":"0","master_route_name":null,"area":"","flood":"2","LAD_status":"Y","LSD_status":"Y","LK_status":"Y","95Petrol_status":"Y","92Petrol_status":"Y"},{"s_id":"28","acct_no":"100215","sname":"L.A.I.S.DASSANAYAKA","saddress":"Halawatha Road,andigama","scity":"Andigama","default_depot":"Muthurajawela Terminal","slatitude":7.780784,"slongitude":79.948479,"stype":"CPC_dealer","sproducts":"LAD,LK,92Petrol","petrol_nf":"","diesel_nf":"","stfhours":"no","pno":"no","sdistance":"0","master_route_id":"0","master_route_name":null,"area":"","flood":"0","LAD_status":"Y","LSD_status":"N","LK_status":"Y","95Petrol_status":"N","92Petrol_status":"Y"},{"s_id":"1597","acct_no":"103418","sname":"MALLIKA ENTERPRICESS","saddress":"Dunagaha","scity":"Dunagaha","default_depot":"Muthurajawela Terminal","slatitude":7.232194,"slongitude":79.966187,"stype":"CPC_dealer","sproducts":"LAD,92Petrol","petrol_nf":"no","diesel_nf":"no","stfhours":"no","pno":"no","sdistance":"0","master_route_id":"0","master_route_name":null,"area":"","flood":"0","LAD_status":"Y","LSD_status":"N","LK_status":"N","95Petrol_status":"N","92Petrol_status":"Y"},{"s_id":"31","acct_no":"100103","sname":"OASIS PIRAVUMHALA","saddress":"No.151,new Kandy Road,biyagama","scity":"Biyagama","default_depot":"Muthurajawela Terminal","slatitude":6.94905,"slongitude":79.991264,"stype":"CPC_dealer","sproducts":"LAD,LK,92Petrol","petrol_nf":"","diesel_nf":"","stfhours":"","pno":"","sdistance":"0","master_route_id":"0","master_route_name":null,"area":"","flood":"0","LAD_status":"Y","LSD_status":"N","LK_status":"Y","95Petrol_status":"N","92Petrol_status":"Y"},{"s_id":"32","acct_no":"100176","sname":"V.W.M.GAMINI ANURA","saddress":"No.01,bazaar Street","scity":"Chilaw","default_depot":"Muthurajawela Terminal","slatitude":7.576789,"slongitude":79.794945,"stype":"CPC_dealer","sproducts":"LAD,LSD,LK,95Petrol,92Petrol","petrol_nf":"no","diesel_nf":"no","stfhours":"no","pno":"no","sdistance":"0","master_route_id":"0","master_route_name":null,"area":"","flood":"0","LAD_status":"Y","LSD_status":"Y","LK_status":"Y","95Petrol_status":"Y","92Petrol_status":"Y"},{"s_id":"33","acct_no":"100284","sname":"S.A.A.N.PERERA","saddress":"Dalugama - Kelaniya","scity":"Dalugama","default_depot":"Muthurajawela Terminal","slatitude":6.974583,"slongitude":79.923401,"stype":"CPC_dealer","sproducts":"LAD,LSD,LK,95Petrol,92Petrol","petrol_nf":"no","diesel_nf":"no","stfhours":"no","pno":"no","sdistance":"0","master_route_id":"0","master_route_name":null,"area":"","flood":"0","LAD_status":"Y","LSD_status":"Y","LK_status":"Y","95Petrol_status":"Y","92Petrol_status":"Y"},{"s_id":"34","acct_no":"100148","sname":"R.M.N.RANASINGHE","saddress":"Negombo Road, Dambadeniya","scity":"Dambadeniya","default_depot":"Muthurajawela Terminal","slatitude":7.373644,"slongitude":80.153633,"stype":"CPC_dealer","sproducts":"LAD,95Petrol,92Petrol","petrol_nf":"","diesel_nf":"","stfhours":"","pno":"","sdistance":"0","master_route_id":"0","master_route_name":null,"area":"","flood":"0","LAD_status":"Y","LSD_status":"N","LK_status":"N","95Petrol_status":"Y","92Petrol_status":"Y"},{"s_id":"37","acct_no":"100203","sname":"L T F.FERNANDOPULLE","saddress":"Dankotuwa","scity":"Dankotuwa","default_depot":"Muthurajawela Terminal","slatitude":7.295006,"slongitude":79.880295,"stype":"CPC_dealer","sproducts":"LAD,92Petrol","petrol_nf":"","diesel_nf":"","stfhours":"","pno":"","sdistance":"0","master_route_id":"0","master_route_name":null,"area":"","flood":"0","LAD_status":"Y","LSD_status":"N","LK_status":"N","95Petrol_status":"N","92Petrol_status":"Y"},{"s_id":"38","acct_no":"100386","sname":"S.D.A.K.S.DASANAYAKA","saddress":"Dankotuwa","scity":"Dankotuwa","default_depot":"Muthurajawela Terminal","slatitude":7.297449,"slongitude":79.904694,"stype":"CPC_dealer","sproducts":"LAD,LSD,LK,92Petrol","petrol_nf":"","diesel_nf":"","stfhours":"","pno":"","sdistance":"0","master_route_id":"0","master_route_name":null,"area":"","flood":"0","LAD_status":"Y","LSD_status":"Y","LK_status":"Y","95Petrol_status":"N","92Petrol_status":"Y"},{"s_id":"39","acct_no":"100340","sname":"P.K.KUMARASIRI PANDUWAWALA","saddress":"No 144,kandy Road,miriswatta-mudungoda","scity":"Miriswatta-mudungoda","default_depot":"Muthurajawela Terminal","slatitude":7.072607,"slongitude":80.01532,"stype":"CPC_dealer","sproducts":"LAD,LSD,LK,95Petrol,92Petrol","petrol_nf":"","diesel_nf":"","stfhours":"","pno":"","sdistance":"0","master_route_id":"0","master_route_name":null,"area":"","flood":"0","LAD_status":"Y","LSD_status":"Y","LK_status":"N","95Petrol_status":"Y","92Petrol_status":"Y"},{"s_id":"40","acct_no":"100147","sname":"P.K.L.H.FERNANDO","saddress":"Divulapitiya","scity":"Divulapitiya","default_depot":"Muthurajawela Terminal","slatitude":7.218594,"slongitude":80.014297,"stype":"CPC_dealer","sproducts":"LAD,LSD,LK,95Petrol,92Petrol","petrol_nf":"","diesel_nf":"","stfhours":"","pno":"","sdistance":"0","master_route_id":"0","master_route_name":null,"area":"","flood":"0","LAD_status":"Y","LSD_status":"Y","LK_status":"Y","95Petrol_status":"Y","92Petrol_status":"Y"},{"s_id":"41","acct_no":"100264","sname":"T.C.S.PERERA","saddress":"No.06, Ballapana, Divulapitiya - Madithagam","scity":"Divulapitiya - Madithagam","default_depot":"Muthurajawela Terminal","slatitude":7.202686,"slongitude":79.996979,"stype":"CPC_dealer","sproducts":"LAD,LSD,LK,95Petrol,92Petrol","petrol_nf":"","diesel_nf":"","stfhours":"","pno":"","sdistance":"0","master_route_id":"0","master_route_name":null,"area":"","flood":"0","LAD_status":"Y","LSD_status":"Y","LK_status":"Y","95Petrol_status":"Y","92Petrol_status":"Y"},{"s_id":"42","acct_no":"100252","sname":"J K A R.PERERA","saddress":"Lanka Filling Station","scity":"Dummalasooriya","default_depot":"Muthurajawela Terminal","slatitude":7.493273,"slongitude":79.913605,"stype":"CPC_dealer","sproducts":"LAD,92Petrol","petrol_nf":"no","diesel_nf":"no","stfhours":"no","pno":"no","sdistance":"0","master_route_id":"0","master_route_name":null,"area":"","flood":"0","LAD_status":"Y","LSD_status":"N","LK_status":"N","95Petrol_status":"N","92Petrol_status":"Y"},{"s_id":"1590","acct_no":"100499","sname":"JAYASURIYA  AUTO SERVICE","saddress":"ARACHCHIKATTUWA","scity":"ARACHCHIKATTUWA","default_depot":"Muthurajawela Terminal","slatitude":7.667194,"slongitude":79.835564,"stype":"CPC_dealer","sproducts":"LAD,LSD,LK,92Petrol","petrol_nf":"no","diesel_nf":"no","stfhours":"no","pno":"no","sdistance":"0","master_route_id":"0","master_route_name":null,"area":"","flood":"0","LAD_status":"Y","LSD_status":"Y","LK_status":"Y","95Petrol_status":"N","92Petrol_status":"Y"},{"s_id":"44","acct_no":"100324","sname":"K.D.M.B.LORA","saddress":"No.08, Gampaha Road, Ekala","scity":"Ekala","default_depot":"Muthurajawela Terminal","slatitude":7.100789,"slongitude":79.912888,"stype":"CPC_dealer","sproducts":"LAD,LSD,LK,95Petrol,92Petrol","petrol_nf":"","diesel_nf":"","stfhours":"","pno":"","sdistance":"0","master_route_id":"0","master_route_name":null,"area":"","flood":"0","LAD_status":"Y","LSD_status":"Y","LK_status":"Y","95Petrol_status":"Y","92Petrol_status":"Y"},{"s_id":"1037","acct_no":"100404","sname":"D.B.DISANAYAKE","saddress":"Lanka Filling Station","scity":"Eppawala","default_depot":"LBD Anuradhapura","slatitude":8.147655,"slongitude":80.409721,"stype":"CPC_dealer","sproducts":"LAD,LSD,LK,95Petrol,92Petrol","petrol_nf":"no","diesel_nf":"no","stfhours":"no","pno":"no","sdistance":"82.52","master_route_id":"0","master_route_name":null,"area":"","flood":"0","LAD_status":"Y","LSD_status":"Y","LK_status":"Y","95Petrol_status":"Y","92Petrol_status":"Y"},{"s_id":"1038","acct_no":"103753","sname":"H.R.Pahirana","saddress":"Lanka Filling Station","scity":"Saliyawewa","default_depot":"LBD Anuradhapura","slatitude":8.198578,"slongitude":80.097122,"stype":"CPC_dealer","sproducts":"LAD,LSD,LK,95Petrol,92Petrol","petrol_nf":"","diesel_nf":"","stfhours":"no","pno":"no","sdistance":"0","master_route_id":"0","master_route_name":null,"area":"","flood":"0","LAD_status":"Y","LSD_status":"Y","LK_status":"Y","95Petrol_status":"Y","92Petrol_status":"Y"},{"s_id":"48","acct_no":"100259","sname":"GALIGAMUWA MPCS LTD","saddress":"No.23,kandy Road, Galigamuwa","scity":"Galigamuwa","default_depot":"Muthurajawela Terminal","slatitude":7.235338,"slongitude":80.309753,"stype":"CPC_dealer","sproducts":"LAD,LSD,LK,95Petrol,92Petrol","petrol_nf":"","diesel_nf":"","stfhours":"","pno":"","sdistance":"0","master_route_id":"0","master_route_name":null,"area":"","flood":"0","LAD_status":"Y","LSD_status":"Y","LK_status":"Y","95Petrol_status":"Y","92Petrol_status":"Y"},{"s_id":"1015","acct_no":"100388","sname":"GALKULAMA FUEL MART","saddress":"Lanka Filling Station","scity":"Galkulama","default_depot":"LBD Anuradhapura","slatitude":8.269369,"slongitude":80.503006,"stype":"CPC_dealer","sproducts":"LAD,LK,95Petrol,92Petrol","petrol_nf":"","diesel_nf":"","stfhours":"no","pno":"no","sdistance":"105.119","master_route_id":"0","master_route_name":null,"area":"","flood":"0","LAD_status":"Y","LSD_status":"N","LK_status":"Y","95Petrol_status":"Y","92Petrol_status":"Y"},{"s_id":"50","acct_no":"100407","sname":"G.C.SAMARAWEERA","saddress":"No 185b,kiridiwita Road, Ganemulla","scity":"Ganemulla","default_depot":"Muthurajawela Terminal","slatitude":7.069363,"slongitude":79.961349,"stype":"CPC_dealer","sproducts":"LAD,92Petrol","petrol_nf":"","diesel_nf":"","stfhours":"","pno":"","sdistance":"0","master_route_id":"0","master_route_name":null,"area":"","flood":"0","LAD_status":"Y","LSD_status":"N","LK_status":"N","95Petrol_status":"N","92Petrol_status":"Y"},{"s_id":"51","acct_no":"100220","sname":"K.A.S.B.SIRIWARDENE","saddress":"Ganemulla","scity":"Ganemulla","default_depot":"Muthurajawela Terminal","slatitude":7.070581,"slongitude":79.961884,"stype":"CPC_dealer","sproducts":"LAD,95Petrol,92Petrol","petrol_nf":"","diesel_nf":"","stfhours":"","pno":"","sdistance":"0","master_route_id":"0","master_route_name":null,"area":"","flood":"0","LAD_status":"Y","LSD_status":"N","LK_status":"N","95Petrol_status":"Y","92Petrol_status":"Y"},{"s_id":"1591","acct_no":"102421","sname":"KEHELELLA MPCS LTD","saddress":"BADALGAMA","scity":"BADALGAMA","default_depot":"Muthurajawela Terminal","slatitude":7.286148,"slongitude":79.985138,"stype":"LIOC_dealer","sproducts":"LAD,92Petrol","petrol_nf":"no","diesel_nf":"no","stfhours":"no","pno":"no","sdistance":"0","master_route_id":"0","master_route_name":null,"area":"","flood":"0","LAD_status":"Y","LSD_status":"N","LK_status":"N","95Petrol_status":"N","92Petrol_status":"Y"},{"s_id":"54","acct_no":"100283","sname":"DEVTURU ENTERPRISES (PVT) LTD","saddress":"No.458,kandy Road, Kadawata - Puwakwetiya","scity":"Kadawata","default_depot":"Kolonnawa Terminal","slatitude":7.006486,"slongitude":79.95858,"stype":"CPC_dealer","sproducts":"LAD,LSD,LK,95Petrol,92Petrol","petrol_nf":"no","diesel_nf":"no","stfhours":"no","pno":"no","sdistance":"0","master_route_id":"0","master_route_name":null,"area":"","flood":"0","LAD_status":"Y","LSD_status":"Y","LK_status":"Y","95Petrol_status":"Y","92Petrol_status":"Y"},{"s_id":"56","acct_no":"101438","sname":"SL TRANSPORT BOARD-BADULLA","saddress":"Badulla","scity":"Badulla","default_depot":"LBD Badulla","slatitude":6.983923,"slongitude":81.065804,"stype":"CPC_consumer","sproducts":"LAD,","petrol_nf":"no","diesel_nf":"no","stfhours":"no","pno":"no","sdistance":"0","master_route_id":"0","master_route_name":null,"area":"","flood":"0","LAD_status":"Y","LSD_status":"N","LK_status":"N","95Petrol_status":"N","92Petrol_status":"N"},{"s_id":"57","acct_no":"102350","sname":"DON DIAS DAMINDA JAYAMAL","saddress":"Lanka IOC","scity":"Badulla","default_depot":"LBD Badulla","slatitude":6.983364,"slongitude":81.067093,"stype":"LIOC_dealer","sproducts":"LAD,LSD,92Petrol","petrol_nf":"no","diesel_nf":"no","stfhours":"no","pno":"no","sdistance":"0","master_route_id":"0","master_route_name":null,"area":"","flood":"0","LAD_status":"Y","LSD_status":"Y","LK_status":"N","95Petrol_status":"N","92Petrol_status":"Y"},{"s_id":"58","acct_no":"100392","sname":"K.A.A.J.R.KURUPPU","saddress":"Kandy Road,kalagedihena","scity":"Kalagedihena","default_depot":"Kolonnawa Terminal","slatitude":7.115603,"slongitude":80.05603,"stype":"CPC_dealer","sproducts":"LAD,LSD,LK,92Petrol","petrol_nf":"no","diesel_nf":"no","stfhours":"no","pno":"no","sdistance":"0","master_route_id":"0","master_route_name":null,"area":"","flood":"0","LAD_status":"Y","LSD_status":"Y","LK_status":"Y","95Petrol_status":"N","92Petrol_status":"Y"},{"s_id":"59","acct_no":"104345","sname":"M H M  MOHIDEEN","saddress":"Muhathuwaram Road,kalpitiya","scity":"Kalpitiya","default_depot":"Muthurajawela Terminal","slatitude":8.238631,"slongitude":79.764496,"stype":"CPC_dealer","sproducts":"LAD,LK,92Petrol","petrol_nf":"no","diesel_nf":"no","stfhours":"no","pno":"no","sdistance":"0","master_route_id":"0","master_route_name":null,"area":"","flood":"0","LAD_status":"Y","LSD_status":"N","LK_status":"Y","95Petrol_status":"N","92Petrol_status":"Y"},{"s_id":"1588","acct_no":"100640","sname":"P B.HERATH  ANURA","saddress":"Alawwa","scity":"Alawwa","default_depot":"Muthurajawela Terminal","slatitude":7.298338,"slongitude":80.224594,"stype":"CPC_dealer","sproducts":"LAD,92Petrol","petrol_nf":"no","diesel_nf":"no","stfhours":"no","pno":"no","sdistance":"0","master_route_id":"0","master_route_name":null,"area":"","flood":"0","LAD_status":"Y","LSD_status":"N","LK_status":"Y","95Petrol_status":"N","92Petrol_status":"Y"},{"s_id":"62","acct_no":"100290","sname":"R A T A .MEDAGAMA","saddress":"Kekirawa","scity":"Kekirawa","default_depot":"LBD Kurunegala","slatitude":8.035096,"slongitude":80.599937,"stype":"CPC_dealer","sproducts":"LAD,LK,92Petrol","petrol_nf":"","diesel_nf":"","stfhours":"no","pno":"no","sdistance":"76.081","master_route_id":"0","master_route_name":null,"area":"","flood":"0","LAD_status":"Y","LSD_status":"N","LK_status":"Y","95Petrol_status":"N","92Petrol_status":"Y"},{"s_id":"1589","acct_no":"103231","sname":"ANAMADUWA MPCS","saddress":"ANAMADUWA","scity":"ANAMADUWA","default_depot":"Muthurajawela Terminal","slatitude":7.879551,"slongitude":80.011925,"stype":"CPC_dealer","sproducts":"LAD,LK,92Petrol","petrol_nf":"no","diesel_nf":"no","stfhours":"no","pno":"no","sdistance":"0","master_route_id":"0","master_route_name":null,"area":"","flood":"0","LAD_status":"Y","LSD_status":"N","LK_status":"Y","95Petrol_status":"N","92Petrol_status":"Y"},{"s_id":"64","acct_no":"100435","sname":"BAS DIL HAULIERS & ENT. (PVT) LTD","saddress":"Biyagama Road,talwatte,kelaniya","scity":"Kelaniya","default_depot":"Muthurajawela Terminal","slatitude":6.951476,"slongitude":79.933701,"stype":"CPC_dealer","sproducts":"LAD,LK,92Petrol","petrol_nf":"","diesel_nf":"","stfhours":"","pno":"","sdistance":"0","master_route_id":"0","master_route_name":null,"area":"","flood":"0","LAD_status":"Y","LSD_status":"N","LK_status":"Y","95Petrol_status":"N","92Petrol_status":"Y"},{"s_id":"65","acct_no":"100102","sname":"CITY AUTO SERVICES (PVT) LTD","saddress":"No.476,kandy Road,dalugama,kelaniya.","scity":"Kelaniya","default_depot":"Muthurajawela Terminal","slatitude":6.969352,"slongitude":79.912148,"stype":"CPC_dealer","sproducts":"LAD,95Petrol,92Petrol","petrol_nf":"","diesel_nf":"","stfhours":"","pno":"","sdistance":"0","master_route_id":"0","master_route_name":null,"area":"","flood":"0","LAD_status":"Y","LSD_status":"N","LK_status":"N","95Petrol_status":"Y","92Petrol_status":"Y"},{"s_id":"66","acct_no":"100362","sname":"SHANTHI JAYAKODI (PVT) LTD","saddress":"Kandy Road, Imbulgoda,kirillawala","scity":"Kirillawala","default_depot":"Muthurajawela Terminal","slatitude":7.035034,"slongitude":79.990997,"stype":"CPC_dealer","sproducts":"LAD,LSD,LK,95Petrol,92Petrol","petrol_nf":"","diesel_nf":"","stfhours":"","pno":"","sdistance":"0","master_route_id":"0","master_route_name":null,"area":"","flood":"0","LAD_status":"Y","LSD_status":"Y","LK_status":"Y","95Petrol_status":"Y","92Petrol_status":"Y"},{"s_id":"67","acct_no":"100315","sname":"KULIYAPITIYA DIVISION MPCS LTD","saddress":"No.89,madampe Road,kuliyapitiya","scity":"Kuliyapitiya","default_depot":"Muthurajawela Terminal","slatitude":7.469504,"slongitude":80.042183,"stype":"CPC_dealer","sproducts":"LAD,92Petrol","petrol_nf":"","diesel_nf":"","stfhours":"","pno":"","sdistance":"0","master_route_id":"0","master_route_name":null,"area":"","flood":"0","LAD_status":"Y","LSD_status":"N","LK_status":"N","95Petrol_status":"N","92Petrol_status":"Y"},{"s_id":"68","acct_no":"100253","sname":"W B P ARIYADASA AND SONS","saddress":"No.125,circular Road, South,kurunegala.","scity":"Kurunegala","default_depot":"LBD Kurunegala","slatitude":7.477177,"slongitude":80.372307,"stype":"CPC_dealer","sproducts":"LAD,LK,92Petrol","petrol_nf":"","diesel_nf":"","stfhours":"no","pno":"no","sdistance":"0.027","master_route_id":"0","master_route_name":null,"area":"","flood":"0","LAD_status":"Y","LSD_status":"N","LK_status":"Y","95Petrol_status":"Y","92Petrol_status":"Y"},{"s_id":"69","acct_no":"100425","sname":"DHAMMIKA ENTERPRISES","saddress":"Lanka Filling Station","scity":"Kurunegala","default_depot":"LBD Kurunegala","slatitude":7.49509,"slongitude":80.36866,"stype":"CPC_dealer","sproducts":"LAD,LSD,LK,95Petrol,92Petrol","petrol_nf":"","diesel_nf":"","stfhours":"no","pno":"no","sdistance":"2.731","master_route_id":"0","master_route_name":null,"area":"","flood":"0","LAD_status":"Y","LSD_status":"Y","LK_status":"Y","95Petrol_status":"Y","92Petrol_status":"Y"},{"s_id":"70","acct_no":"100380","sname":"VIYALUWA MPCS LTD","saddress":"Lanka Filling Station","scity":"Kandaketiya","default_depot":"LBD Badulla","slatitude":7.194312,"slongitude":81.021988,"stype":"CPC_dealer","sproducts":"LAD,LK,92Petrol","petrol_nf":"no","diesel_nf":"no","stfhours":"no","pno":"no","sdistance":"0","master_route_id":"0","master_route_name":null,"area":"","flood":"0","LAD_status":"Y","LSD_status":"N","LK_status":"Y","95Petrol_status":"N","92Petrol_status":"Y"},{"s_id":"71","acct_no":"102352","sname":"HALI ELA MPCS LTD","saddress":"Lanka IOC","scity":"Hali Ela","default_depot":"LBD Badulla","slatitude":6.961098,"slongitude":81.035622,"stype":"LIOC_dealer","sproducts":"LAD,92Petrol","petrol_nf":"no","diesel_nf":"no","stfhours":"no","pno":"no","sdistance":"0","master_route_id":"0","master_route_name":null,"area":"","flood":"0","LAD_status":"Y","LSD_status":"N","LK_status":"N","95Petrol_status":"N","92Petrol_status":"Y"},{"s_id":"72","acct_no":"100296","sname":"BIBILE KOTAGAMA MPCS LTD","saddress":"Lanka Filling Station","scity":"Bibile","default_depot":"LBD Badulla","slatitude":7.155271,"slongitude":81.224174,"stype":"CPC_dealer","sproducts":"LAD,LK,92Petrol","petrol_nf":"no","diesel_nf":"no","stfhours":"no","pno":"no","sdistance":"0","master_route_id":"0","master_route_name":null,"area":"","flood":"0","LAD_status":"Y","LSD_status":"N","LK_status":"N","95Petrol_status":"N","92Petrol_status":"Y"},{"s_id":"73","acct_no":"100363","sname":"N K B.ANIL JAYASINGHE","saddress":"No.85,anuradhapura Road,daladagama,maho","scity":"Maho","default_depot":"Muthurajawela Terminal","slatitude":7.826801,"slongitude":80.248917,"stype":"CPC_dealer","sproducts":"LAD,LK,92Petrol","petrol_nf":"no","diesel_nf":"no","stfhours":"no","pno":"no","sdistance":"0","master_route_id":"0","master_route_name":null,"area":"","flood":"0","LAD_status":"Y","LSD_status":"N","LK_status":"Y","95Petrol_status":"N","92Petrol_status":"Y"},{"s_id":"74","acct_no":"100161","sname":"MAHARA MPCS LTD","saddress":"No 205, Waturugama Road, Malwatu - Hiripitiya","scity":"Malwathu Hiripitiya","default_depot":"Muthurajawela Terminal","slatitude":7.054501,"slongitude":80.067551,"stype":"CPC_dealer","sproducts":"LAD,LK,92Petrol","petrol_nf":"no","diesel_nf":"no","stfhours":"no","pno":"no","sdistance":"0","master_route_id":"0","master_route_name":null,"area":"","flood":"0","LAD_status":"Y","LSD_status":"N","LK_status":"N","95Petrol_status":"N","92Petrol_status":"Y"},{"s_id":"1348","acct_no":"100864","sname":"DIMBULAGALA MPCS LTD","saddress":"Lanka Filling Station","scity":"Welikanda","default_depot":"LBD Kurunegala","slatitude":7.945225,"slongitude":81.244926,"stype":"CPC_dealer","sproducts":"LAD,LK,92Petrol","petrol_nf":"","diesel_nf":"","stfhours":"no","pno":"no","sdistance":"154.798","master_route_id":"0","master_route_name":null,"area":"","flood":"0","LAD_status":"Y","LSD_status":"N","LK_status":"Y","95Petrol_status":"N","92Petrol_status":"Y"},{"s_id":"76","acct_no":"100402","sname":"PRODUCERS & MANUFACTURERS LTD","saddress":"Negombo-mirigama Road,marandagahamulla","scity":"Marandagahamulla","default_depot":"Muthurajawela Terminal","slatitude":7.229271,"slongitude":79.989861,"stype":"CPC_dealer","sproducts":"LAD,92Petrol","petrol_nf":"","diesel_nf":"","stfhours":"","pno":"","sdistance":"0","master_route_id":"0","master_route_name":null,"area":"","flood":"0","LAD_status":"Y","LSD_status":"N","LK_status":"N","95Petrol_status":"N","92Petrol_status":"Y"},{"s_id":"77","acct_no":"100197","sname":"RISIKI LANKA PIRAVUMHALA","saddress":"Lanka Filling Station","scity":"Maspotha","default_depot":"LBD Kurunegala","slatitude":7.520666,"slongitude":80.330971,"stype":"CPC_dealer","sproducts":"LAD,LSD,LK,92Petrol","petrol_nf":"","diesel_nf":"","stfhours":"no","pno":"no","sdistance":"7.021","master_route_id":"0","master_route_name":null,"area":"","flood":"0","LAD_status":"Y","LSD_status":"Y","LK_status":"Y","95Petrol_status":"Y","92Petrol_status":"Y"},{"s_id":"78","acct_no":"100178","sname":"CAFFOOR AND CO","saddress":"Lanka Filling Station","scity":"Matale","default_depot":"LBD Sarasavi Uyana","slatitude":7.467832,"slongitude":80.623634,"stype":"CPC_dealer","sproducts":"LAD,LK,95Petrol,92Petrol","petrol_nf":"no","diesel_nf":"no","stfhours":"no","pno":"no","sdistance":"0","master_route_id":"0","master_route_name":null,"area":"","flood":"0","LAD_status":"Y","LSD_status":"N","LK_status":"Y","95Petrol_status":"Y","92Petrol_status":"Y"},{"s_id":"80","acct_no":"100071","sname":"PRASANNA AGENCIES","saddress":"4542a,mawaramandiya","scity":"Mawaramandiya","default_depot":"Muthurajawela Terminal","slatitude":6.986521,"slongitude":79.974518,"stype":"CPC_dealer","sproducts":"LAD,LK,92Petrol","petrol_nf":"","diesel_nf":"","stfhours":"","pno":"","sdistance":"0","master_route_id":"0","master_route_name":null,"area":"","flood":"0","LAD_status":null,"LSD_status":null,"LK_status":null,"95Petrol_status":null,"92Petrol_status":null},{"s_id":"81","acct_no":"100399","sname":"MEDIRIGIRIYA MPCS LTD","saddress":"Medirigiriya","scity":"Medirigiriya","default_depot":"LBD Kurunegala","slatitude":8.142017,"slongitude":80.969521,"stype":"CPC_dealer","sproducts":"LAD,LK,92Petrol","petrol_nf":"","diesel_nf":"","stfhours":"no","pno":"no","sdistance":"122.936","master_route_id":"0","master_route_name":null,"area":"","flood":"0","LAD_status":"Y","LSD_status":"N","LK_status":"Y","95Petrol_status":"N","92Petrol_status":"Y"},{"s_id":"83","acct_no":"100255","sname":"WG FRANCIS APPUHAMY SAMUHA VIYAPARA","saddress":"Mihintale","scity":"Mihintale","default_depot":"LBD Anuradhapura","slatitude":8.358002,"slongitude":80.510635,"stype":"CPC_dealer","sproducts":"LAD,LK,92Petrol","petrol_nf":"no","diesel_nf":"no","stfhours":"no","pno":"no","sdistance":"0","master_route_id":"0","master_route_name":null,"area":"","flood":"0","LAD_status":"Y","LSD_status":"N","LK_status":"Y","95Petrol_status":"N","92Petrol_status":"Y"},{"s_id":"84","acct_no":"100162","sname":"K.M.JAINUL ABDEEN","saddress":"Lanka Filling Station","scity":"Minuwangate","default_depot":"LBD Kurunegala","slatitude":7.709105,"slongitude":80.243629,"stype":"CPC_dealer","sproducts":"LAD,LK,92Petrol","petrol_nf":"","diesel_nf":"","stfhours":"no","pno":"no","sdistance":"33.125","master_route_id":"0","master_route_name":null,"area":"","flood":"0","LAD_status":"Y","LSD_status":"N","LK_status":"Y","95Petrol_status":"N","92Petrol_status":"Y"},{"s_id":"85","acct_no":"100449","sname":"D.K.R.S.SUMEDHA DISSANAYAKE","saddress":"Giriulla Road,mirigama","scity":"Mirigama","default_depot":"Muthurajawela Terminal","slatitude":7.249285,"slongitude":80.130585,"stype":"CPC_dealer","sproducts":"LAD,92Petrol","petrol_nf":"","diesel_nf":"","stfhours":"","pno":"","sdistance":"0","master_route_id":"0","master_route_name":null,"area":"","flood":"0","LAD_status":"Y","LSD_status":"N","LK_status":"N","95Petrol_status":"N","92Petrol_status":"Y"},{"s_id":"86","acct_no":"100419","sname":"MIRIGAMA MPCS LTD","saddress":"Pasyala-giriulla Road,mirigama","scity":"Mirigama","default_depot":"Muthurajawela Terminal","slatitude":7.247471,"slongitude":80.129311,"stype":"CPC_dealer","sproducts":"LAD,LK,92Petrol","petrol_nf":"","diesel_nf":"","stfhours":"","pno":"","sdistance":"0","master_route_id":"0","master_route_name":null,"area":"","flood":"0","LAD_status":"Y","LSD_status":"N","LK_status":"Y","95Petrol_status":"N","92Petrol_status":"Y"},{"s_id":"87","acct_no":"100596","sname":"S H S.HAMEED HUSSAIN","saddress":"LFS","scity":"Madurankuli","default_depot":"Muthurajawela Terminal","slatitude":7.910158,"slongitude":79.823433,"stype":"CPC_dealer","sproducts":"LAD","petrol_nf":"no","diesel_nf":"no","stfhours":"no","pno":"no","sdistance":"0","master_route_id":"0","master_route_name":null,"area":"","flood":"0","LAD_status":null,"LSD_status":null,"LK_status":null,"95Petrol_status":null,"92Petrol_status":null},{"s_id":"89","acct_no":"100405","sname":"P.A.C.KULATILLEKE","saddress":"266b,new Kandy Road, Naranwala","scity":"Naranwala","default_depot":"Muthurajawela Terminal","slatitude":7.011794,"slongitude":80.024208,"stype":"CPC_dealer","sproducts":"LAD,92Petrol","petrol_nf":"","diesel_nf":"","stfhours":"","pno":"","sdistance":"0","master_route_id":"0","master_route_name":null,"area":"","flood":"0","LAD_status":"Y","LSD_status":"N","LK_status":"N","95Petrol_status":"N","92Petrol_status":"Y"},{"s_id":"90","acct_no":"100060","sname":"PETRO GAS (PVT) LTD","saddress":"Nawinna,maharagama","scity":"Maharagama","default_depot":"Kolonnawa","slatitude":6.85435,"slongitude":79.914047,"stype":"CPC_dealer","sproducts":"LAD,LSD,95Petrol,92Petrol","petrol_nf":"","diesel_nf":"","stfhours":"","pno":"","sdistance":"0","master_route_id":"0","master_route_name":null,"area":"","flood":"0","LAD_status":"Y","LSD_status":"Y","LK_status":"N","95Petrol_status":"Y","92Petrol_status":"Y"},{"s_id":"91","acct_no":"100370","sname":"JAYALATH ENTERPRISES","saddress":"Negombo - Mankuliya","scity":"Negombo - Mankuliya","default_depot":"Muthurajawela Terminal","slatitude":7.206185,"slongitude":79.83255,"stype":"CPC_dealer","sproducts":"LAD,LK,92Petrol","petrol_nf":"","diesel_nf":"","stfhours":"","pno":"","sdistance":"0","master_route_id":"0","master_route_name":null,"area":"","flood":"0","LAD_status":"Y","LSD_status":"N","LK_status":"Y","95Petrol_status":"N","92Petrol_status":"Y"},{"s_id":"93","acct_no":"100117","sname":"NEGOMBO MPCS LTD","saddress":"No.358, Main Street,telwatta Junction,negombo","scity":"Negombo","default_depot":"Muthurajawela Terminal ","slatitude":7.205752,"slongitude":79.850876,"stype":"CPC_dealer","sproducts":"LAD,92Petrol","petrol_nf":"","diesel_nf":"","stfhours":"","pno":"","sdistance":"0","master_route_id":"0","master_route_name":null,"area":"","flood":"0","LAD_status":"Y","LSD_status":"Y","LK_status":"N","95Petrol_status":"Y","92Petrol_status":"Y"},{"s_id":"94","acct_no":"100327","sname":"WARAKAPOLA MPCS LTD","saddress":"No.1381,kandy Road,nelundeniya","scity":"Nelundeniya","default_depot":"Kolonnawa","slatitude":7.234722,"slongitude":80.262573,"stype":"CPC_dealer","sproducts":"LAD,92Petrol","petrol_nf":"","diesel_nf":"","stfhours":"","pno":"","sdistance":"0","master_route_id":"0","master_route_name":null,"area":"","flood":"0","LAD_status":"Y","LSD_status":"N","LK_status":"N","95Petrol_status":"N","92Petrol_status":"Y"},{"s_id":"95","acct_no":"100358","sname":"LAKPIRI ENTERPRISES","saddress":"Nittambuwa","scity":"Nittambuwa","default_depot":"Muthurajawela Terminal","slatitude":7.155572,"slongitude":80.109818,"stype":"CPC_dealer","sproducts":"LAD,LSD,95Petrol,92Petrol","petrol_nf":"","diesel_nf":"","stfhours":"","pno":"","sdistance":"0","master_route_id":"0","master_route_name":null,"area":"","flood":"0","LAD_status":"Y","LSD_status":"Y","LK_status":"N","95Petrol_status":"Y","92Petrol_status":"Y"},{"s_id":"96","acct_no":"100124","sname":"MS. HITECH CARBONS (PVT) LTD","saddress":"Nambadaluwa-nittambuwa ","scity":"Nambadaluwa-nittambuwa ","default_depot":"Muthurajawela Terminal","slatitude":7.136453,"slongitude":80.090622,"stype":"CPC_dealer","sproducts":"LAD,LSD,92Petrol","petrol_nf":"","diesel_nf":"","stfhours":"","pno":"","sdistance":"0","master_route_id":"0","master_route_name":null,"area":"","flood":"0","LAD_status":"Y","LSD_status":"Y","LK_status":"N","95Petrol_status":"N","92Petrol_status":"Y"},{"s_id":"97","acct_no":"100125","sname":"HONDAHITHA ENTERPRISES","saddress":"No.148, Highlevel Road, Nugegoda","scity":"Nugegoda","default_depot":"Kolonnawa","slatitude":6.870019,"slongitude":79.887573,"stype":"CPC_dealer","sproducts":"LAD,95Petrol,92Petrol","petrol_nf":"","diesel_nf":"","stfhours":"","pno":"","sdistance":"0","master_route_id":"0","master_route_name":null,"area":"","flood":"0","LAD_status":"Y","LSD_status":"N","LK_status":"N","95Petrol_status":"Y","92Petrol_status":"Y"},{"s_id":"98","acct_no":"100334","sname":"WICKRAMASIRI ENTERPRISES (PVT) LTD","saddress":"No.183,highlevel Road,nugegoda","scity":"Nugegoda","default_depot":"Kolonnawa","slatitude":6.869611,"slongitude":79.889488,"stype":"CPC_dealer","sproducts":"LAD,LK,95Petrol,92Petrol","petrol_nf":"","diesel_nf":"","stfhours":"","pno":"","sdistance":"0","master_route_id":"0","master_route_name":null,"area":"","flood":"0","LAD_status":"Y","LSD_status":"N","LK_status":"Y","95Petrol_status":"Y","92Petrol_status":"Y"},{"s_id":"99","acct_no":"102361","sname":"W PALIHAWADANA AND SONS","saddress":"Kandy Road, Nuwaraeliya","scity":"Nuwara Eliya","default_depot":"LBD Kotagala","slatitude":6.974114,"slongitude":80.767029,"stype":"LIOC_dealer","sproducts":"LAD,92Petrol","petrol_nf":"no","diesel_nf":"no","stfhours":"no","pno":"no","sdistance":"35.721","master_route_id":"1","master_route_name":null,"area":"","flood":"0","LAD_status":"Y","LSD_status":"N","LK_status":"N","95Petrol_status":"N","92Petrol_status":"Y"},{"s_id":"100","acct_no":"105134","sname":"LAUGFS PETROLEUM (PVT) LTD","saddress":"Orugodawatta","scity":"Orugodawatta","default_depot":"Kolonnawa Terminal","slatitude":6.942952,"slongitude":79.878769,"stype":"CPC_dealer","sproducts":"LAD,LSD,LK,95Petrol,92Petrol","petrol_nf":"no","diesel_nf":"no","stfhours":"no","pno":"no","sdistance":"0","master_route_id":"0","master_route_name":null,"area":"","flood":"0","LAD_status":"Y","LSD_status":"Y","LK_status":"Y","95Petrol_status":"Y","92Petrol_status":"Y"},{"s_id":"101","acct_no":"100195","sname":"S.S.P.FENANDO","saddress":"Giriulla Road,pasyala","scity":"Pasyala","default_depot":"Muthurajawela Terminal","slatitude":7.183002,"slongitude":80.115479,"stype":"CPC_dealer","sproducts":"LAD,92Petrol","petrol_nf":"","diesel_nf":"","stfhours":"","pno":"","sdistance":"0","master_route_id":"0","master_route_name":null,"area":"","flood":"0","LAD_status":"Y","LSD_status":"N","LK_status":"N","95Petrol_status":"N","92Petrol_status":"Y"},{"s_id":"103","acct_no":"100367","sname":"N.S.N.ENTERPRISES","saddress":"No.126,negombo Road,peliyagoda","scity":"Peliyagoda","default_depot":"Muthurajawela Terminal","slatitude":6.964416,"slongitude":79.881821,"stype":"CPC_dealer","sproducts":"LAD,95Petrol,92Petrol","petrol_nf":"","diesel_nf":"","stfhours":"","pno":"","sdistance":"0","master_route_id":"0","master_route_name":null,"area":"","flood":"0","LAD_status":"Y","LSD_status":"N","LK_status":"N","95Petrol_status":"Y","92Petrol_status":"Y"},{"s_id":"104","acct_no":"100289","sname":"K D U AND SONS FILLING STATION","saddress":"No.249,balangoda Road,pelmadulla","scity":"Pelmadulla","default_depot":"Kolonnawa Terminal","slatitude":6.621003,"slongitude":80.554001,"stype":"CPC_dealer","sproducts":"LAD,LSD,LK,95Petrol,92Petrol","petrol_nf":"no","diesel_nf":"no","stfhours":"no","pno":"no","sdistance":"0","master_route_id":"0","master_route_name":null,"area":"","flood":"3","LAD_status":"Y","LSD_status":"Y","LK_status":"Y","95Petrol_status":"Y","92Petrol_status":"Y"},{"s_id":"105","acct_no":"100355","sname":"YATINUWARA GANGAPALATHA MPCS LTD","saddress":"Lanka Filling Station","scity":"Gannoruwa","default_depot":"LBD Peradeniya","slatitude":7.276421,"slongitude":80.590965,"stype":"CPC_dealer","sproducts":"LAD,LK,92Petrol","petrol_nf":"no","diesel_nf":"no","stfhours":"no","pno":"no","sdistance":"0","master_route_id":"0","master_route_name":null,"area":"","flood":"0","LAD_status":"Y","LSD_status":"N","LK_status":"Y","95Petrol_status":"N","92Petrol_status":"Y"},{"s_id":"106","acct_no":"100213","sname":"J.M.GUNATHILAKA","saddress":"Raddolugama","scity":"Raddolugama","default_depot":"Muthurajawela Terminal","slatitude":7.145774,"slongitude":79.89444,"stype":"CPC_dealer","sproducts":"LAD,LK,92Petrol","petrol_nf":"","diesel_nf":"","stfhours":"","pno":"","sdistance":"0","master_route_id":"0","master_route_name":null,"area":"","flood":"0","LAD_status":"Y","LSD_status":"N","LK_status":"Y","95Petrol_status":"N","92Petrol_status":"Y"},{"s_id":"107","acct_no":"100014","sname":"K.D.U.S.PERERA AND CO.( PVT )LTD","saddress":"No. 243,welikada, Rajagiriya","scity":"Rajagiriya","default_depot":"Kolonnawa Terminal","slatitude":6.908632,"slongitude":79.898582,"stype":"CPC_dealer","sproducts":"LAD,95Petrol,92Petrol","petrol_nf":"","diesel_nf":"","stfhours":"no","pno":"no","sdistance":"0","master_route_id":"0","master_route_name":null,"area":"","flood":"0","LAD_status":"Y","LSD_status":"Y","LK_status":"N","95Petrol_status":"Y","92Petrol_status":"Y"},{"s_id":"108","acct_no":"100470","sname":"SUPER SERVICE STATION (PVT) LTD","saddress":"No.172, Nawala Road,nugegoda","scity":"Nugegoda","default_depot":"Kolonnawa","slatitude":6.882604,"slongitude":79.887573,"stype":"CPC_dealer","sproducts":"LAD,LSD,LK,95Petrol,92Petrol","petrol_nf":"","diesel_nf":"","stfhours":"","pno":"","sdistance":"0","master_route_id":"0","master_route_name":null,"area":"","flood":"0","LAD_status":"Y","LSD_status":"Y","LK_status":"Y","95Petrol_status":"Y","92Petrol_status":"Y"},{"s_id":"109","acct_no":"100194","sname":"S.S.FILLING STATION ( PVT ) LTD","saddress":"Kalapaluwawa,rajagiriya","scity":"Rajagiriya","default_depot":"Kolonnawa","slatitude":6.914065,"slongitude":79.910332,"stype":"CPC_dealer","sproducts":"LAD,LSD,LK,95Petrol,92Petrol","petrol_nf":"","diesel_nf":"","stfhours":"","pno":"","sdistance":"0","master_route_id":"0","master_route_name":null,"area":"","flood":"0","LAD_status":"Y","LSD_status":"Y","LK_status":"Y","95Petrol_status":"Y","92Petrol_status":"Y"},{"s_id":"110","acct_no":"100222","sname":"K.P.P.MUNASINGHE","saddress":"Lanka Filling Station","scity":"Kundasale","default_depot":"LBD Peradeniya","slatitude":7.279416,"slongitude":80.678772,"stype":"CPC_dealer","sproducts":"LAD,LSD,LK,95Petrol,92Petrol","petrol_nf":"yes","diesel_nf":"no","stfhours":"no","pno":"no","sdistance":"0","master_route_id":"0","master_route_name":null,"area":"","flood":"0","LAD_status":"Y","LSD_status":"Y","LK_status":"N","95Petrol_status":"Y","92Petrol_status":"Y"},{"s_id":"111","acct_no":"100276","sname":"KEGALLE MPCS LTD.","saddress":"No.204,kandy Road,kegalle","scity":"Kegalle","default_depot":"Muthurajawela Terminal","slatitude":7.251178,"slongitude":80.333275,"stype":"CPC_dealer","sproducts":"LAD,LK,95Petrol,92Petrol","petrol_nf":"","diesel_nf":"","stfhours":"","pno":"","sdistance":"0","master_route_id":"0","master_route_name":null,"area":"","flood":"0","LAD_status":"Y","LSD_status":"N","LK_status":"Y","95Petrol_status":"Y","92Petrol_status":"Y"},{"s_id":"112","acct_no":"100140","sname":"TALATUOYA MARASSANA MPCS LTD","saddress":"Lanka Filling Station","scity":"Tennekumbura","default_depot":"LBD Peradeniya","slatitude":7.284688,"slongitude":80.663597,"stype":"CPC_dealer","sproducts":"LAD,LK,92Petrol","petrol_nf":"no","diesel_nf":"no","stfhours":"no","pno":"no","sdistance":"0","master_route_id":"0","master_route_name":null,"area":"","flood":"0","LAD_status":"Y","LSD_status":"N","LK_status":"Y","95Petrol_status":"N","92Petrol_status":"Y"},{"s_id":"113","acct_no":"100481","sname":"WARIYAPOLA MPCS LTD","saddress":"No.222, Puttalam Road,wariyapola","scity":"Wariyapola","default_depot":"Muthurajawela Terminal","slatitude":7.625717,"slongitude":80.242386,"stype":"CPC_dealer","sproducts":"LAD,LSD,LK,95Petrol,92Petrol","petrol_nf":"","diesel_nf":"","stfhours":"","pno":"","sdistance":"22.374","master_route_id":"0","master_route_name":null,"area":"","flood":"0","LAD_status":"Y","LSD_status":"Y","LK_status":"Y","95Petrol_status":"Y","92Petrol_status":"Y"},{"s_id":"114","acct_no":"100306","sname":"W.P.S.K.CHANDRASIRI","saddress":"No.557,negombo Road,bandarawatte,seeduwa","scity":"Seeduwa","default_depot":"Muthurajawela Terminal","slatitude":7.122159,"slongitude":79.87899,"stype":"CPC_dealer","sproducts":"LAD,LSD,95Petrol,92Petrol","petrol_nf":"","diesel_nf":"","stfhours":"","pno":"","sdistance":"0","master_route_id":"0","master_route_name":null,"area":"","flood":"0","LAD_status":"Y","LSD_status":"Y","LK_status":"N","95Petrol_status":"Y","92Petrol_status":"Y"},{"s_id":"115","acct_no":"100424","sname":"ISURU PRINTERS (PVT) LTD","saddress":"No. 351 D, Pannipitiya Road, Talawathugoda","scity":"Talawathugoda","default_depot":"Kolonnawa","slatitude":6.873596,"slongitude":79.937454,"stype":"CPC_dealer","sproducts":"LAD,LSD,95Petrol,92Petrol","petrol_nf":"","diesel_nf":"","stfhours":"","pno":"","sdistance":"0","master_route_id":"0","master_route_name":null,"area":"","flood":"0","LAD_status":"Y","LSD_status":"Y","LK_status":"N","95Petrol_status":"Y","92Petrol_status":"Y"},{"s_id":"116","acct_no":"104992","sname":"KAVINDA DISSANAYAKE","saddress":"Kurunegala Road, Tambuttegama","scity":"Thambuttegama","default_depot":"LBD Anuradhapura","slatitude":8.154899,"slongitude":80.296326,"stype":"CPC_dealer","sproducts":"LAD,LK,92Petrol","petrol_nf":"no","diesel_nf":"no","stfhours":"no","pno":"no","sdistance":"0","master_route_id":"0","master_route_name":null,"area":"","flood":"0","LAD_status":"Y","LSD_status":"N","LK_status":"Y","95Petrol_status":"N","92Petrol_status":"Y"},{"s_id":"117","acct_no":"100369","sname":"AMT FUEL MART","saddress":"Jaffna Road,vauniya.","scity":"Vavuniya","default_depot":"Kolonnawa Terminal","slatitude":8.722669,"slongitude":80.487579,"stype":"CPC_dealer","sproducts":"LAD,LSD,LK,95Petrol,92Petrol","petrol_nf":"no","diesel_nf":"no","stfhours":"no","pno":"no","sdistance":"0","master_route_id":"0","master_route_name":null,"area":"","flood":"0","LAD_status":"Y","LSD_status":"Y","LK_status":"Y","95Petrol_status":"Y","92Petrol_status":"Y"},{"s_id":"119","acct_no":"100436","sname":"R.ARANGALLAGE","saddress":"Ruwanwella,veyangoda","scity":"Veyangoda","default_depot":"Muthurajawela Terminal","slatitude":7.153673,"slongitude":80.062485,"stype":"CPC_dealer","sproducts":"LAD,95Petrol,92Petrol","petrol_nf":"","diesel_nf":"","stfhours":"","pno":"","sdistance":"0","master_route_id":"0","master_route_name":null,"area":"","flood":"0","LAD_status":"Y","LSD_status":"N","LK_status":"N","95Petrol_status":"Y","92Petrol_status":"Y"},{"s_id":"120","acct_no":"100204","sname":"DISSANAYAKE ENTERPRISES","saddress":"Veyangoda - Wataddara","scity":"Veyangoda - Wataddara","default_depot":"Muthurajawela Terminal","slatitude":7.157052,"slongitude":80.046036,"stype":"CPC_dealer","sproducts":"LAD,92Petrol","petrol_nf":"","diesel_nf":"","stfhours":"","pno":"","sdistance":"0","master_route_id":"0","master_route_name":null,"area":"","flood":"0","LAD_status":"Y","LSD_status":"N","LK_status":"N","95Petrol_status":"N","92Petrol_status":"Y"},{"s_id":"121","acct_no":"100191","sname":"SANNOT PIRAVUMHALA","saddress":"Puttalam Road,waikkal","scity":"Waikkal","default_depot":"Muthurajawela Terminal","slatitude":7.292039,"slongitude":79.852325,"stype":"CPC_dealer","sproducts":"LAD,LK,95Petrol,92Petrol","petrol_nf":"","diesel_nf":"","stfhours":"","pno":"","sdistance":"0","master_route_id":"0","master_route_name":null,"area":"","flood":"0","LAD_status":"Y","LSD_status":"N","LK_status":"Y","95Petrol_status":"Y","92Petrol_status":"Y"},{"s_id":"122","acct_no":"100416","sname":"N K B ANIL JAYASINGHE","saddress":"No.419, Puttalam Road,wariyapola.","scity":"Wariyapola","default_depot":"LBD Kurunegala","slatitude":7.640249,"slongitude":80.231018,"stype":"CPC_dealer","sproducts":"LAD,LK,92Petrol","petrol_nf":"","diesel_nf":"","stfhours":"no","pno":"no","sdistance":"24.418","master_route_id":"0","master_route_name":null,"area":"","flood":"0","LAD_status":"Y","LSD_status":"N","LK_status":"Y","95Petrol_status":"N","92Petrol_status":"Y"},{"s_id":"123","acct_no":"100432","sname":"J.A.D.JULIET PERERA","saddress":"No.250, Negombo Road,wattala","scity":"Wattala","default_depot":"Muthurajawela Terminal","slatitude":6.981982,"slongitude":79.888184,"stype":"CPC_dealer","sproducts":"LAD,92Petrol","petrol_nf":"","diesel_nf":"","stfhours":"","pno":"","sdistance":"0","master_route_id":"0","master_route_name":null,"area":"","flood":"0","LAD_status":"Y","LSD_status":"N","LK_status":"N","95Petrol_status":"N","92Petrol_status":"Y"},{"s_id":"124","acct_no":"100168","sname":"RAMEES M S M","saddress":"Kandy-kurunegala Road,weuda","scity":"Weuda","default_depot":"LBD Kurunegala","slatitude":7.41563,"slongitude":80.476585,"stype":"CPC_dealer","sproducts":"LAD,LK,92Petrol","petrol_nf":"","diesel_nf":"","stfhours":"no","pno":"no","sdistance":"14.474","master_route_id":"0","master_route_name":null,"area":"","flood":"0","LAD_status":"Y","LSD_status":"N","LK_status":"N","95Petrol_status":"N","92Petrol_status":"Y"},{"s_id":"125","acct_no":"100408","sname":"J.F.A.PINTO","saddress":"Chilaw Road, Wennappuwa","scity":"Wennappuwa","default_depot":"Muthurajawela Terminal","slatitude":7.345244,"slongitude":79.840256,"stype":"CPC_dealer","sproducts":"LAD,92Petrol","petrol_nf":"","diesel_nf":"","stfhours":"","pno":"","sdistance":"0","master_route_id":"0","master_route_name":null,"area":"","flood":"0","LAD_status":"Y","LSD_status":"N","LK_status":"N","95Petrol_status":"N","92Petrol_status":"Y"},{"s_id":"126","acct_no":"100448","sname":"WENNAPPUWA MPCS LTD","saddress":"No. 351, Chilaw Road,wennappuwa","scity":"Wennappuwa","default_depot":"Muthurajawela Terminal","slatitude":7.32744,"slongitude":79.845261,"stype":"CPC_dealer","sproducts":"LAD,LK,92Petrol","petrol_nf":"","diesel_nf":"","stfhours":"","pno":"","sdistance":"0","master_route_id":"0","master_route_name":null,"area":"","flood":"0","LAD_status":"Y","LSD_status":"N","LK_status":"Y","95Petrol_status":"N","92Petrol_status":"Y"},{"s_id":"127","acct_no":"100301","sname":"CHILAW MPCS LTD","saddress":"Puttalam Road,chilaw","scity":"Chilaw","default_depot":"Muthurajawela Terminal","slatitude":7.574829,"slongitude":79.796165,"stype":"CPC_dealer","sproducts":"LAD,LK,92Petrol","petrol_nf":"","diesel_nf":"","stfhours":"","pno":"","sdistance":"0","master_route_id":"0","master_route_name":null,"area":"","flood":"0","LAD_status":"Y","LSD_status":"N","LK_status":"Y","95Petrol_status":"N","92Petrol_status":"Y"},{"s_id":"128","acct_no":"100036","sname":"EHELIYAGODA ASSOCIATES","saddress":"No.271,danister De Silva Mawatha,colombo.","scity":"Colombo","default_depot":"Kolonnawa Terminal","slatitude":6.928408,"slongitude":79.8778,"stype":"CPC_dealer","sproducts":"LAD,LSD,LK,95Petrol,92Petrol","petrol_nf":"","diesel_nf":"","stfhours":"no","pno":"no","sdistance":"0","master_route_id":"0","master_route_name":null,"area":"","flood":"0","LAD_status":"Y","LSD_status":"Y","LK_status":"N","95Petrol_status":"Y","92Petrol_status":"Y"},{"s_id":"129","acct_no":"100105","sname":"SLIPTO AGENCIES (PVT) LTD","saddress":"No.70,bastian Mawatha,colombo","scity":"Colombo","default_depot":"Kolonnawa","slatitude":6.933516,"slongitude":79.853523,"stype":"CPC_dealer","sproducts":"","petrol_nf":"","diesel_nf":"","stfhours":"","pno":"","sdistance":"0","master_route_id":"0","master_route_name":null,"area":"","flood":"0","LAD_status":null,"LSD_status":null,"LK_status":null,"95Petrol_status":null,"92Petrol_status":null},{"s_id":"130","acct_no":"100377","sname":"B.D.S.G.SERVICE STATION (PVT) LTD","saddress":"No. 125,george R De Silva Mawatha, Colombo - 13","scity":"Colombo - 13","default_depot":"Kolonnawa","slatitude":6.949042,"slongitude":79.859825,"stype":"CPC_dealer","sproducts":"LAD,LSD,LK,95Petrol,92Petrol","petrol_nf":"","diesel_nf":"","stfhours":"","pno":"","sdistance":"0","master_route_id":"0","master_route_name":null,"area":"","flood":"0","LAD_status":"Y","LSD_status":"Y","LK_status":"Y","95Petrol_status":"Y","92Petrol_status":"Y"},{"s_id":"132","acct_no":"100121","sname":"VIJAYA SERVICE STATION (PVT) LTD","saddress":"No.24,jethawana Road,colombo","scity":"Colombo","default_depot":"Kolonnawa           ","slatitude":6.943342,"slongitude":79.864525,"stype":"CPC_dealer","sproducts":"LAD,92Petrol","petrol_nf":"","diesel_nf":"","stfhours":"","pno":"","sdistance":"0","master_route_id":"0","master_route_name":null,"area":"","flood":"0","LAD_status":"Y","LSD_status":"N","LK_status":"N","95Petrol_status":"N","92Petrol_status":"Y"},{"s_id":"133","acct_no":"100230","sname":"D. T. A. ATALE & SON ( PVT ) LTD","saddress":"No.363,sirimavo Bandaranayake Mw,colombo","scity":"Colombo","default_depot":"Kolonnawa","slatitude":6.947946,"slongitude":79.870209,"stype":"CPC_dealer","sproducts":"LAD,LK,92Petrol","petrol_nf":"","diesel_nf":"","stfhours":"","pno":"","sdistance":"0","master_route_id":"0","master_route_name":null,"area":"","flood":"0","LAD_status":"Y","LSD_status":"N","LK_status":"Y","95Petrol_status":"N","92Petrol_status":"Y"},{"s_id":"134","acct_no":"100089","sname":"ESCAYCEE TRAVELS LTD","saddress":"No.291,sri Sangaraja Mawatha,colombo","scity":"Colombo","default_depot":"Kolonnawa","slatitude":6.934939,"slongitude":79.865868,"stype":"CPC_dealer","sproducts":"LAD,95Petrol,92Petrol","petrol_nf":"","diesel_nf":"","stfhours":"","pno":"","sdistance":"0","master_route_id":"0","master_route_name":null,"area":"","flood":"0","LAD_status":"Y","LSD_status":"N","LK_status":"N","95Petrol_status":"Y","92Petrol_status":"Y"},{"s_id":"135","acct_no":"100041","sname":"COLOMBO NORTH REGION TRANSPORT BOAR","saddress":"No.825, Danister De Silva Mawatha, Orugodawatte,colombo 14 -","scity":"Colombo 14 -","default_depot":"Kolonnawa","slatitude":6.944815,"slongitude":79.877914,"stype":"LIOC_dealer","sproducts":"LAD,92Petrol","petrol_nf":"","diesel_nf":"","stfhours":"","pno":"","sdistance":"0","master_route_id":"0","master_route_name":null,"area":"","flood":"0","LAD_status":null,"LSD_status":null,"LK_status":null,"95Petrol_status":null,"92Petrol_status":null},{"s_id":"136","acct_no":"100127","sname":"MS. NIM LANKA (PVT) LTD","saddress":"No.145, Stace Road,colombo -","scity":"Colombo -","default_depot":"Kolonnawa","slatitude":6.945052,"slongitude":79.874306,"stype":"CPC_dealer","sproducts":"LAD,LK,92Petrol","petrol_nf":"","diesel_nf":"","stfhours":"","pno":"","sdistance":"0","master_route_id":"0","master_route_name":null,"area":"","flood":"0","LAD_status":"Y","LSD_status":"N","LK_status":"Y","95Petrol_status":"N","92Petrol_status":"Y"},{"s_id":"137","acct_no":"100095","sname":"SOMA EDIRISINGHE","saddress":"No.693,danister De Silva Mawatha, Colombo","scity":"Colombo","default_depot":"Kolonnawa","slatitude":6.939829,"slongitude":79.877853,"stype":"CPC_dealer","sproducts":"LAD,92Petrol","petrol_nf":"","diesel_nf":"","stfhours":"","pno":"","sdistance":"0","master_route_id":"0","master_route_name":null,"area":"","flood":"0","LAD_status":"Y","LSD_status":"N","LK_status":"N","95Petrol_status":"N","92Petrol_status":"Y"},{"s_id":"138","acct_no":"100026","sname":"SISIRI ENTERPRISES","saddress":"No. 37,dr. C.w.w.kannangara Mawatha, Colombo - 07","scity":"Colombo - 07","default_depot":"Kolonnawa","slatitude":6.915499,"slongitude":79.864998,"stype":"CPC_dealer","sproducts":"LAD,LSD,95Petrol,92Petrol","petrol_nf":"","diesel_nf":"","stfhours":"","pno":"","sdistance":"0","master_route_id":"0","master_route_name":null,"area":"","flood":"0","LAD_status":"Y","LSD_status":"Y","LK_status":"N","95Petrol_status":"Y","92Petrol_status":"Y"},{"s_id":"139","acct_no":"100209","sname":"NIROSHANA ENTERPRISES (PVT) LTD","saddress":"No. 54,sir Ernest De Silva Mawatha, Colombo - 07","scity":"Colombo - 07","default_depot":"Kolonnawa","slatitude":6.90919,"slongitude":79.857117,"stype":"CPC_dealer","sproducts":"LAD,LSD,95Petrol,92Petrol","petrol_nf":"","diesel_nf":"","stfhours":"","pno":"","sdistance":"0","master_route_id":"0","master_route_name":null,"area":"","flood":"0","LAD_status":"Y","LSD_status":"Y","LK_status":"N","95Petrol_status":"Y","92Petrol_status":"Y"},{"s_id":"141","acct_no":"102331","sname":"COLOMBO SOUTH MPCS LTD.","saddress":"LIOC FS","scity":"Kotahena","default_depot":"Muthurajawela Terminal","slatitude":6.945079,"slongitude":79.864113,"stype":"LIOC_dealer","sproducts":"LAD,LSD,92Petrol","petrol_nf":"no","diesel_nf":"no","stfhours":"no","pno":"no","sdistance":"0","master_route_id":"0","master_route_name":null,"area":"","flood":"0","LAD_status":"Y","LSD_status":"Y","LK_status":"N","95Petrol_status":"N","92Petrol_status":"Y"},{"s_id":"142","acct_no":"100256","sname":"S L C M FEDERATION LTD","saddress":"No.304,dr. Colvin R De Silva Mawatha,colombo","scity":"Colombo","default_depot":"Kolonnawa","slatitude":6.919758,"slongitude":79.858788,"stype":"CPC_dealer","sproducts":"LAD,92Petrol","petrol_nf":"","diesel_nf":"","stfhours":"","pno":"","sdistance":"0","master_route_id":"0","master_route_name":null,"area":"","flood":"0","LAD_status":"Y","LSD_status":"N","LK_status":"N","95Petrol_status":"N","92Petrol_status":"Y"},{"s_id":"144","acct_no":"100500","sname":"YASASIRI FILLING STATION","saddress":"Lanka Filling Station","scity":"Kurunegala","default_depot":"LBD Kurunegala","slatitude":7.483778,"slongitude":80.362808,"stype":"CPC_dealer","sproducts":"LAD,LSD,92Petrol","petrol_nf":"","diesel_nf":"","stfhours":"no","pno":"no","sdistance":"1.747","master_route_id":"0","master_route_name":null,"area":"","flood":"0","LAD_status":"N","LSD_status":"N","LK_status":"N","95Petrol_status":"N","92Petrol_status":"Y"},{"s_id":"145","acct_no":"100542","sname":"MALLIKA AUTO SERVICES AND FILLING CENTRE","saddress":"Colombo Road -wehera,kurunegala","scity":"Kurunegala","default_depot":"LBD Kurunegala","slatitude":7.470927,"slongitude":80.349251,"stype":"CPC_dealer","sproducts":"LAD,92Petrol","petrol_nf":"","diesel_nf":"","stfhours":"no","pno":"no","sdistance":"3.205","master_route_id":"0","master_route_name":null,"area":"","flood":"0","LAD_status":"Y","LSD_status":"N","LK_status":"N","95Petrol_status":"N","92Petrol_status":"Y"},{"s_id":"146","acct_no":"103446","sname":"W.K.NISSANKA ARACHCHI","saddress":"Bamunawala,narammala Road,kurunegala","scity":"Kurunegala","default_depot":"LBD Kurunegala","slatitude":7.473657,"slongitude":80.327797,"stype":"CPC_dealer","sproducts":"LAD,LSD,LK,95Petrol,92Petrol","petrol_nf":"","diesel_nf":"","stfhours":"no","pno":"no","sdistance":"5.596","master_route_id":"0","master_route_name":null,"area":"","flood":"0","LAD_status":"Y","LSD_status":"Y","LK_status":"Y","95Petrol_status":"Y","92Petrol_status":"Y"},{"s_id":"147","acct_no":"100628","sname":"KURUNEGALA MPCS LTD","saddress":"Puttalam Road,kurunegala","scity":"Kurunegala","default_depot":"LBD Kurunegala","slatitude":7.490053,"slongitude":80.359413,"stype":"CPC_dealer","sproducts":"LAD,LSD,LK,95Petrol,92Petrol","petrol_nf":"","diesel_nf":"","stfhours":"no","pno":"no","sdistance":"2.36","master_route_id":"0","master_route_name":null,"area":"","flood":"0","LAD_status":"Y","LSD_status":"Y","LK_status":"Y","95Petrol_status":"Y","92Petrol_status":"Y"},{"s_id":"148","acct_no":"101416","sname":"SL TRANSPORT BOARD(SOUTH)","saddress":"Kandy Road,kurunegala","scity":"Kurunegala","default_depot":"LBD Kurunegala","slatitude":7.479474,"slongitude":80.370895,"stype":"CPC_consumer","sproducts":"LAD,","petrol_nf":"","diesel_nf":"","stfhours":"no","pno":"no","sdistance":"0.604","master_route_id":"0","master_route_name":null,"area":"","flood":"0","LAD_status":"Y","LSD_status":"N","LK_status":"N","95Petrol_status":"N","92Petrol_status":"N"},{"s_id":"149","acct_no":"101417","sname":"SL TRANSPORT BOARD(NORTH)","saddress":"Torayaya,dambulla Road,kurunegala","scity":"Kurunegala","default_depot":"LBD Kurunegala","slatitude":7.500765,"slongitude":80.394867,"stype":"CPC_consumer","sproducts":"LAD,","petrol_nf":"","diesel_nf":"","stfhours":"no","pno":"no","sdistance":"4.489","master_route_id":"0","master_route_name":null,"area":"","flood":"0","LAD_status":"Y","LSD_status":"N","LK_status":"N","95Petrol_status":"N","92Petrol_status":"N"},{"s_id":"150","acct_no":"100536","sname":"GUNASIRI LANKA FILLING STATION","saddress":"No.239, Colombo Road,pothuhera","scity":"Pothuhera","default_depot":"LBD Kurunegala","slatitude":7.410624,"slongitude":80.326225,"stype":"CPC_dealer","sproducts":"LAD,LK,92Petrol","petrol_nf":"","diesel_nf":"","stfhours":"no","pno":"no","sdistance":"10.519","master_route_id":"0","master_route_name":null,"area":"","flood":"0","LAD_status":"Y","LSD_status":"N","LK_status":"Y","95Petrol_status":"N","92Petrol_status":"Y"},{"s_id":"151","acct_no":"102672","sname":"KURUNEGALA MPCS LTD","saddress":"Colombo Road,pothuhera","scity":"Pothuhera","default_depot":"LBD Kurunegala","slatitude":7.420687,"slongitude":80.328491,"stype":"CPC_dealer","sproducts":"LAD,LK,92Petrol","petrol_nf":"","diesel_nf":"","stfhours":"no","pno":"no","sdistance":"9.374","master_route_id":"0","master_route_name":null,"area":"","flood":"0","LAD_status":"Y","LSD_status":"N","LK_status":"Y","95Petrol_status":"N","92Petrol_status":"Y"},{"s_id":"155","acct_no":"100291","sname":"S.A.SAMANTHA","saddress":"lanka Filling Station","scity":"Gonagolla","default_depot":"LBD Badulla","slatitude":7.42807,"slongitude":81.625854,"stype":"CPC_dealer","sproducts":"LAD,LSD,LK,92Petrol","petrol_nf":"no","diesel_nf":"no","stfhours":"no","pno":"no","sdistance":"0","master_route_id":"0","master_route_name":null,"area":"","flood":"0","LAD_status":"Y","LSD_status":"Y","LK_status":"Y","95Petrol_status":"Y","92Petrol_status":"Y"},{"s_id":"156","acct_no":"100096","sname":"NIKAWERATIYA MPCS LTD","saddress":"Puttalam-kurunegala Road,nikaweratiya.","scity":"Nikaweratiya","default_depot":"Muthurajawela Terminal","slatitude":7.74818,"slongitude":80.11718,"stype":"CPC_dealer","sproducts":"LAD,LK,92Petrol","petrol_nf":"","diesel_nf":"","stfhours":"","pno":"","sdistance":"0","master_route_id":"0","master_route_name":null,"area":"","flood":"0","LAD_status":"Y","LSD_status":"N","LK_status":"Y","95Petrol_status":"N","92Petrol_status":"Y"},{"s_id":"158","acct_no":"100579","sname":"GAMINI SAMARASINGHA","saddress":"Trincomalee Road,nochchiyagama","scity":"Nochchiyagama","default_depot":"LBD Anuradhapura","slatitude":8.2616,"slongitude":80.206032,"stype":"CPC_dealer","sproducts":"LAD,LK,92Petrol","petrol_nf":"","diesel_nf":"","stfhours":"no","pno":"no","sdistance":"0","master_route_id":"0","master_route_name":null,"area":"","flood":"0","LAD_status":"Y","LSD_status":"N","LK_status":"Y","95Petrol_status":"N","92Petrol_status":"Y"},{"s_id":"160","acct_no":"100649","sname":"W.A.J.FERNANDO ENTERPRISES","saddress":"Mankuliya-negombo","scity":"Mankuliya-negombo","default_depot":"Muthurajawela Terminal","slatitude":7.206196,"slongitude":79.831024,"stype":"CPC_dealer","sproducts":"LAD,LK,","petrol_nf":"","diesel_nf":"","stfhours":"no","pno":"no","sdistance":"0","master_route_id":"0","master_route_name":null,"area":"","flood":"0","LAD_status":"Y","LSD_status":"N","LK_status":"Y","95Petrol_status":"N","92Petrol_status":"N"},{"s_id":"161","acct_no":"100929","sname":"MR. K.E.LEONARD PEIRIS","saddress":"Selby Road,negombo","scity":"Negombo","default_depot":"Muthurajawela Terminal","slatitude":7.209634,"slongitude":79.830826,"stype":"CPC_dealer","sproducts":"LK,","petrol_nf":"","diesel_nf":"","stfhours":"","pno":"","sdistance":"0","master_route_id":"0","master_route_name":null,"area":"","flood":"0","LAD_status":"N","LSD_status":"N","LK_status":"Y","95Petrol_status":"N","92Petrol_status":"N"},{"s_id":"162","acct_no":"100961","sname":"S.BENJAMIN SILVA PULLE ","saddress":"Greens Road, Negombo","scity":"Negombo","default_depot":"Muthurajawela Terminal","slatitude":7.208556,"slongitude":79.840111,"stype":"CPC_dealer","sproducts":"LK,","petrol_nf":"","diesel_nf":"","stfhours":"no","pno":"no","sdistance":"0","master_route_id":"0","master_route_name":null,"area":"","flood":"0","LAD_status":"N","LSD_status":"N","LK_status":"Y","95Petrol_status":"N","92Petrol_status":"N"},{"s_id":"163","acct_no":"102675","sname":"M.R.TENNAKOON","saddress":"Puttalam Road, Nikaweratiya","scity":"Nikaweratiya","default_depot":"Muthurajawela Terminal","slatitude":7.798573,"slongitude":80.085434,"stype":"CPC_dealer","sproducts":"LAD,LK,92Petrol","petrol_nf":"","diesel_nf":"","stfhours":"","pno":"","sdistance":"0","master_route_id":"0","master_route_name":null,"area":"","flood":"0","LAD_status":"Y","LSD_status":"N","LK_status":"Y","95Petrol_status":"N","92Petrol_status":"Y"},{"s_id":"164","acct_no":"103390","sname":"SINDRATHI PIRAUMPOLA-KDD","saddress":"Near The Harbour,duwa,negambo","scity":"Negambo","default_depot":"Muthurajawela Terminal","slatitude":7.204096,"slongitude":79.827744,"stype":"CPC_dealer","sproducts":"LAD,LK,","petrol_nf":"","diesel_nf":"","stfhours":"no","pno":"no","sdistance":"0","master_route_id":"0","master_route_name":null,"area":"","flood":"0","LAD_status":"Y","LSD_status":"N","LK_status":"Y","95Petrol_status":"N","92Petrol_status":"N"},{"s_id":"165","acct_no":"102679","sname":"CEYLON FISHERY HARBOURS CORPORATION","saddress":"Negambo","scity":"Negambo","default_depot":"Muthurajawela Terminal","slatitude":7.20431,"slongitude":79.827583,"stype":"CPC_dealer","sproducts":"LAD,","petrol_nf":"","diesel_nf":"","stfhours":"no","pno":"no","sdistance":"0","master_route_id":"0","master_route_name":null,"area":"","flood":"0","LAD_status":"Y","LSD_status":"N","LK_status":"N","95Petrol_status":"N","92Petrol_status":"N"},{"s_id":"166","acct_no":"100916","sname":"MS. NEGOMBO SOUTH FISHERMENS CS LTD","saddress":"Pitipana,negombo","scity":"Negombo","default_depot":"Muthurajawela Terminal","slatitude":7.204158,"slongitude":79.827736,"stype":"CPC_dealer","sproducts":"LAD,LK,","petrol_nf":"","diesel_nf":"","stfhours":"no","pno":"no","sdistance":"0","master_route_id":"0","master_route_name":null,"area":"","flood":"0","LAD_status":"Y","LSD_status":"N","LK_status":"Y","95Petrol_status":"N","92Petrol_status":"N"},{"s_id":"167","acct_no":"102886","sname":"LAUGFS FILLING STATION","saddress":"No.3112, Colombo Road,negombo","scity":"Negombo","default_depot":"Muthurajawela Terminal","slatitude":7.204389,"slongitude":79.852165,"stype":"CPC_dealer","sproducts":"LAD,LSD,95Petrol,92Petrol","petrol_nf":"","diesel_nf":"","stfhours":"","pno":"","sdistance":"0","master_route_id":"0","master_route_name":null,"area":"","flood":"0","LAD_status":"Y","LSD_status":"Y","LK_status":"N","95Petrol_status":"Y","92Petrol_status":"Y"},{"s_id":"168","acct_no":"102409","sname":"MR. K.H.JAYASINGHE","saddress":"Udubaddawa Road, Nattandiya","scity":"Nattandiya","default_depot":"Kolonnawa Terminal","slatitude":7.412496,"slongitude":79.868576,"stype":"LIOC_dealer","sproducts":"LAD,92Petrol","petrol_nf":"no","diesel_nf":"no","stfhours":"no","pno":"no","sdistance":"0","master_route_id":"0","master_route_name":null,"area":"","flood":"0","LAD_status":"Y","LSD_status":"N","LK_status":"N","95Petrol_status":"N","92Petrol_status":"Y"},{"s_id":"169","acct_no":"103839","sname":"W.M.UPALI SENAVIRATNA","saddress":"Koswatta Road, Nattandiya","scity":"Nattandiya","default_depot":"Muthurajawela Terminal","slatitude":7.3798,"slongitude":79.90313,"stype":"CPC_dealer","sproducts":"LAD,LK,92Petrol","petrol_nf":"","diesel_nf":"","stfhours":"","pno":"","sdistance":"0","master_route_id":"0","master_route_name":null,"area":"","flood":"0","LAD_status":"Y","LSD_status":"N","LK_status":"Y","95Petrol_status":"N","92Petrol_status":"Y"},{"s_id":"170","acct_no":"100423","sname":"U.A.KURUPPUARACHCHI","saddress":"No. 1259, Kaduwela Road, Oruwala, Athurugiriya","scity":"Athurugiriya","default_depot":"Kolonnawa","slatitude":6.888872,"slongitude":79.997086,"stype":"CPC_dealer","sproducts":"LAD,92Petrol","petrol_nf":"","diesel_nf":"","stfhours":"","pno":"","sdistance":"0","master_route_id":"0","master_route_name":null,"area":"","flood":"0","LAD_status":"Y","LSD_status":"N","LK_status":"N","95Petrol_status":"Y","92Petrol_status":"Y"},{"s_id":"171","acct_no":"100054","sname":"R.ARANGALLAGE","saddress":"No 26,kandy Road,nittambuwa","scity":"Nittambuwa","default_depot":"Muthurajawela Terminal","slatitude":7.144991,"slongitude":80.096161,"stype":"CPC_dealer","sproducts":"LAD,LK,92Petrol","petrol_nf":"","diesel_nf":"","stfhours":"","pno":"","sdistance":"0","master_route_id":"0","master_route_name":null,"area":"","flood":"0","LAD_status":"Y","LSD_status":"N","LK_status":"Y","95Petrol_status":"N","92Petrol_status":"Y"},{"s_id":"172","acct_no":"100240","sname":"R.K.THEEKSHANAPALA","saddress":"Attangalla","scity":"Attangalla","default_depot":"Muthurajawela Terminal","slatitude":7.112849,"slongitude":80.135048,"stype":"CPC_dealer","sproducts":"LAD,LK,92Petrol","petrol_nf":"","diesel_nf":"","stfhours":"","pno":"","sdistance":"0","master_route_id":"0","master_route_name":null,"area":"","flood":"0","LAD_status":"Y","LSD_status":"N","LK_status":"Y","95Petrol_status":"N","92Petrol_status":"Y"},{"s_id":"173","acct_no":"102344","sname":"ATTANAGALLA MPCS LTD","saddress":"Lanka Ioc Filling Station,urapola","scity":"Urapola","default_depot":"Muthurajawela Terminal","slatitude":7.112147,"slongitude":80.13636,"stype":"LIOC_dealer","sproducts":"LAD,92Petrol","petrol_nf":"no","diesel_nf":"no","stfhours":"no","pno":"no","sdistance":"0","master_route_id":"0","master_route_name":null,"area":"","flood":"0","LAD_status":"Y","LSD_status":"N","LK_status":"N","95Petrol_status":"N","92Petrol_status":"Y"},{"s_id":"174","acct_no":"100107","sname":"D.W.A .HAPUARACHCHI & COMPANY","saddress":"Horana Road,bandaragama","scity":"Bandaragama","default_depot":"Kolonnawa","slatitude":6.713989,"slongitude":79.988823,"stype":"CPC_dealer","sproducts":"LAD,95Petrol,92Petrol","petrol_nf":"","diesel_nf":"","stfhours":"","pno":"","sdistance":"0","master_route_id":"0","master_route_name":null,"area":"","flood":"0","LAD_status":"Y","LSD_status":"N","LK_status":"N","95Petrol_status":"Y","92Petrol_status":"Y"},{"s_id":"175","acct_no":"100443","sname":"BANDARAGAMA MPCS LTD","saddress":"No. 20, Panadura Road,bandaragama","scity":"Bandaragama","default_depot":"Kolonnawa","slatitude":6.714515,"slongitude":79.989349,"stype":"CPC_dealer","sproducts":"LAD,LK,95Petrol,92Petrol","petrol_nf":"","diesel_nf":"","stfhours":"","pno":"","sdistance":"0","master_route_id":"0","master_route_name":null,"area":"","flood":"0","LAD_status":"Y","LSD_status":"N","LK_status":"Y","95Petrol_status":"Y","92Petrol_status":"Y"},{"s_id":"176","acct_no":"100554","sname":"SRI LANKA NAVY WELFARE DIVISION","saddress":"Maththumagala,welisara","scity":"Welisara","default_depot":"Muthurajawela Terminal","slatitude":7.018364,"slongitude":79.899567,"stype":"CPC_dealer","sproducts":"LAD,LSD,95Petrol,92Petrol","petrol_nf":"","diesel_nf":"","stfhours":"","pno":"","sdistance":"0","master_route_id":"0","master_route_name":null,"area":"","flood":"0","LAD_status":"Y","LSD_status":"Y","LK_status":"N","95Petrol_status":"Y","92Petrol_status":"Y"},{"s_id":"177","acct_no":"102338","sname":"E P B DE SOYSA AND SONS (PVT) LTD","saddress":"Lanka Ioc Filling Station","scity":"Mahabage","default_depot":"Muthurajawela Terminal","slatitude":7.022251,"slongitude":79.899483,"stype":"LIOC_dealer","sproducts":"LAD,92Petrol","petrol_nf":"no","diesel_nf":"no","stfhours":"no","pno":"no","sdistance":"0","master_route_id":"0","master_route_name":null,"area":"","flood":"0","LAD_status":"Y","LSD_status":"N","LK_status":"N","95Petrol_status":"N","92Petrol_status":"Y"},{"s_id":"178","acct_no":"100515","sname":"JA-ELA MPCS LTD","saddress":"No.50, Negombo Road,kandana","scity":"Kandana","default_depot":"Kolonnawa Terminal","slatitude":7.049313,"slongitude":79.896751,"stype":"CPC_dealer","sproducts":"LAD,LK,92Petrol","petrol_nf":"no","diesel_nf":"no","stfhours":"no","pno":"no","sdistance":"0","master_route_id":"0","master_route_name":null,"area":"","flood":"0","LAD_status":"Y","LSD_status":"N","LK_status":"Y","95Petrol_status":"N","92Petrol_status":"Y"},{"s_id":"179","acct_no":"100489","sname":"NELUKA ENTERPRISES","saddress":"No.253, Negombo Road,kandana","scity":"Kandana","default_depot":"Muthurajawela Terminal","slatitude":7.036103,"slongitude":79.898819,"stype":"CPC_dealer","sproducts":"LAD,95Petrol,92Petrol","petrol_nf":"","diesel_nf":"","stfhours":"","pno":"","sdistance":"0","master_route_id":"0","master_route_name":null,"area":"","flood":"0","LAD_status":"Y","LSD_status":"N","LK_status":"N","95Petrol_status":"Y","92Petrol_status":"Y"},{"s_id":"180","acct_no":"100935","sname":"S.R.B.TRADES","saddress":"Welisara - Kandana","scity":"Welisara - Kandana","default_depot":"Muthurajawela Terminal","slatitude":7.033587,"slongitude":79.898697,"stype":"CPC_dealer","sproducts":"LAD,LK,95Petrol,92Petrol","petrol_nf":"","diesel_nf":"","stfhours":"","pno":"","sdistance":"0","master_route_id":"0","master_route_name":null,"area":"","flood":"0","LAD_status":"Y","LSD_status":"N","LK_status":"Y","95Petrol_status":"Y","92Petrol_status":"Y"},{"s_id":"181","acct_no":"100325","sname":"MOTOR SERVICE STATION","saddress":"No. 309, Badulla Road,bandarawela","scity":"Bandarawela","default_depot":"LBD Haputale","slatitude":6.830028,"slongitude":80.996391,"stype":"CPC_dealer","sproducts":"LAD,95Petrol,92Petrol","petrol_nf":"","diesel_nf":"","stfhours":"no","pno":"no","sdistance":"0","master_route_id":"0","master_route_name":null,"area":"","flood":"0","LAD_status":"Y","LSD_status":"N","LK_status":"N","95Petrol_status":"Y","92Petrol_status":"Y"},{"s_id":"183","acct_no":"100485","sname":"M H SAMAYADASA AND SONS","saddress":"Lanka Filling Station","scity":"Haputale","default_depot":"LBD Haputale","slatitude":6.768299,"slongitude":80.959854,"stype":"CPC_dealer","sproducts":"LAD,LK,92Petrol","petrol_nf":"no","diesel_nf":"no","stfhours":"no","pno":"no","sdistance":"0","master_route_id":"0","master_route_name":null,"area":"","flood":"0","LAD_status":"Y","LSD_status":"N","LK_status":"Y","95Petrol_status":"N","92Petrol_status":"Y"},{"s_id":"184","acct_no":"100547","sname":"JAYAMAL SERVICE AND FILLING STATION","saddress":"Ampara","scity":"Ampara","default_depot":"LBD Badulla","slatitude":7.291913,"slongitude":81.672447,"stype":"CPC_dealer","sproducts":"LAD,92Petrol","petrol_nf":"no","diesel_nf":"no","stfhours":"no","pno":"no","sdistance":"0","master_route_id":"0","master_route_name":null,"area":"","flood":"0","LAD_status":"Y","LSD_status":"N","LK_status":"N","95Petrol_status":"N","92Petrol_status":"Y"},{"s_id":"187","acct_no":"100154","sname":"W.S.S.AUTO FUELS ( PRIVATE ) LTD","saddress":"No.1431, Colombo Road,jaela","scity":"Jaela","default_depot":"Muthurajawela Terminal","slatitude":7.076798,"slongitude":79.891434,"stype":"CPC_dealer","sproducts":"LAD,LSD,LK,95Petrol,92Petrol","petrol_nf":"","diesel_nf":"","stfhours":"","pno":"","sdistance":"0","master_route_id":"0","master_route_name":null,"area":"","flood":"0","LAD_status":"Y","LSD_status":"Y","LK_status":"Y","95Petrol_status":"Y","92Petrol_status":"Y"},{"s_id":"188","acct_no":"100398","sname":"THUSARI AND SON","saddress":"Lanka Filling Station","scity":"Ja Ela","default_depot":"Muthurajawela Terminal","slatitude":7.073213,"slongitude":79.89286,"stype":"CPC_dealer","sproducts":"LAD,92Petrol","petrol_nf":"no","diesel_nf":"no","stfhours":"no","pno":"no","sdistance":"0","master_route_id":"0","master_route_name":null,"area":"","flood":"0","LAD_status":"Y","LSD_status":"N","LK_status":"N","95Petrol_status":"Y","92Petrol_status":"Y"},{"s_id":"189","acct_no":"103395","sname":"K. P. SUPUN KUMARA PERERA","saddress":"No156,kottugoda,ekala","scity":"KOTUGODA","default_depot":"Muthurajawela Terminal","slatitude":7.117946,"slongitude":79.914604,"stype":"CPC_dealer","sproducts":"LAD,LSD,95Petrol,92Petrol","petrol_nf":"","diesel_nf":"","stfhours":"","pno":"","sdistance":"0","master_route_id":"0","master_route_name":null,"area":"","flood":"0","LAD_status":"Y","LSD_status":"Y","LK_status":"N","95Petrol_status":"Y","92Petrol_status":"Y"},{"s_id":"190","acct_no":"103308","sname":"M.I.DEEPAL DE SILVA DHARMARATHNE","saddress":"Opatha,kotugoda","scity":"Kotugoda","default_depot":"Muthurajawela Terminal","slatitude":7.132051,"slongitude":79.926285,"stype":"CPC_dealer","sproducts":"LAD,LSD,92Petrol","petrol_nf":"","diesel_nf":"","stfhours":"","pno":"","sdistance":"0","master_route_id":"0","master_route_name":null,"area":"","flood":"0","LAD_status":"Y","LSD_status":"Y","LK_status":"N","95Petrol_status":"N","92Petrol_status":"Y"},{"s_id":"191","acct_no":"100508","sname":"B.A.RANIL PRIYANTHA","saddress":"No. 19, Rilawala, Wethara,polgasowita","scity":"Polgasowita","default_depot":"Kolonnawa Terminal","slatitude":6.786507,"slongitude":79.965057,"stype":"CPC_dealer","sproducts":"LAD,LSD,LK,95Petrol,92Petrol","petrol_nf":"no","diesel_nf":"no","stfhours":"no","pno":"no","sdistance":"0","master_route_id":"0","master_route_name":null,"area":"","flood":"0","LAD_status":"Y","LSD_status":"Y","LK_status":"Y","95Petrol_status":"Y","92Petrol_status":"Y"},{"s_id":"192","acct_no":"103752","sname":"D R M WICRAMASEKERA HOLDINGS","saddress":"Colombo - Horana Road,polgasowita","scity":"Polgasowita","default_depot":"Muthurajawela Terminal","slatitude":6.787398,"slongitude":79.964607,"stype":"CPC_dealer","sproducts":"LAD,LK,92Petrol","petrol_nf":"","diesel_nf":"","stfhours":"","pno":"","sdistance":"0","master_route_id":"0","master_route_name":null,"area":"","flood":"0","LAD_status":"Y","LSD_status":"Y","LK_status":"Y","95Petrol_status":"Y","92Petrol_status":"Y"},{"s_id":"195","acct_no":"102359","sname":"R M SENEVIRATNE","saddress":"Lanka IOC","scity":"Lunugala","default_depot":"LBD Badulla","slatitude":7.042019,"slongitude":81.203087,"stype":"LIOC_dealer","sproducts":"LAD,92Petrol","petrol_nf":"no","diesel_nf":"no","stfhours":"no","pno":"no","sdistance":"0","master_route_id":"0","master_route_name":null,"area":"","flood":"0","LAD_status":"Y","LSD_status":"N","LK_status":"N","95Petrol_status":"N","92Petrol_status":"Y"},{"s_id":"196","acct_no":"102362","sname":"PASSARA MPCS LTD","saddress":"Lanka IOC","scity":"Passara","default_depot":"LBD Badulla","slatitude":6.934803,"slongitude":81.155479,"stype":"LIOC_dealer","sproducts":"LAD,92Petrol","petrol_nf":"no","diesel_nf":"no","stfhours":"no","pno":"no","sdistance":"0","master_route_id":"0","master_route_name":null,"area":"","flood":"0","LAD_status":"Y","LSD_status":"N","LK_status":"N","95Petrol_status":"N","92Petrol_status":"Y"},{"s_id":"197","acct_no":"100594","sname":"M.S.DIAS","saddress":"Lanka Filling Station","scity":"Bibile","default_depot":"LBD Badulla","slatitude":7.160187,"slongitude":81.225281,"stype":"CPC_dealer","sproducts":"LAD,LK,92Petrol","petrol_nf":"no","diesel_nf":"no","stfhours":"no","pno":"no","sdistance":"0","master_route_id":"0","master_route_name":null,"area":"","flood":"0","LAD_status":"Y","LSD_status":"N","LK_status":"Y","95Petrol_status":"N","92Petrol_status":"Y"},{"s_id":"199","acct_no":"100604","sname":"WELIMADA MPCS LTD","saddress":"No. 105, Nuwaraeliya Road,welimada","scity":"Welimada","default_depot":"LBD Kotagala","slatitude":6.905066,"slongitude":80.909569,"stype":"CPC_dealer","sproducts":"LAD,LK,92Petrol","petrol_nf":"","diesel_nf":"","stfhours":"no","pno":"no","sdistance":"56.922","master_route_id":"0","master_route_name":null,"area":"","flood":"0","LAD_status":"Y","LSD_status":"N","LK_status":"Y","95Petrol_status":"N","92Petrol_status":"Y"},{"s_id":"201","acct_no":"100597","sname":"W D MILTON PERERA","saddress":"Lanka filling Station","scity":"Keppetipola","default_depot":"LBD Haputale","slatitude":6.894291,"slongitude":80.867653,"stype":"CPC_dealer","sproducts":"LAD,LK,92Petrol","petrol_nf":"no","diesel_nf":"no","stfhours":"no","pno":"no","sdistance":"50.664","master_route_id":"0","master_route_name":null,"area":"","flood":"0","LAD_status":"Y","LSD_status":"N","LK_status":"Y","95Petrol_status":"N","92Petrol_status":"Y"},{"s_id":"1414","acct_no":"101550","sname":"SPECIAL TASK FORCE- AMPARA","saddress":"Ampara","scity":"Ampara","default_depot":"LBD Badulla","slatitude":7.317663,"slongitude":81.661942,"stype":"CPC_consumer","sproducts":"LAD,","petrol_nf":"no","diesel_nf":"no","stfhours":"no","pno":"no","sdistance":"0","master_route_id":"0","master_route_name":null,"area":"","flood":"0","LAD_status":"Y","LSD_status":"N","LK_status":"N","95Petrol_status":"N","92Petrol_status":"N"},{"s_id":"204","acct_no":"100192","sname":"SAMAN ENTERPRISES","saddress":"lanka Filling Station","scity":"Ampara","default_depot":"LBD Badulla","slatitude":7.293745,"slongitude":81.69194,"stype":"CPC_dealer","sproducts":"LAD,92Petrol","petrol_nf":"no","diesel_nf":"no","stfhours":"no","pno":"no","sdistance":"0","master_route_id":"0","master_route_name":null,"area":"","flood":"0","LAD_status":"Y","LSD_status":"N","LK_status":"N","95Petrol_status":"N","92Petrol_status":"N"},{"s_id":"205","acct_no":"100359","sname":"H.M.TILLAKASIRI","saddress":"lanka Filling Station","scity":"Badalkumbura","default_depot":"LBD Badulla","slatitude":6.89549,"slongitude":81.236099,"stype":"CPC_dealer","sproducts":"LAD,LSD,LK,95Petrol,92Petrol","petrol_nf":"no","diesel_nf":"no","stfhours":"no","pno":"no","sdistance":"0","master_route_id":"0","master_route_name":null,"area":"","flood":"0","LAD_status":"Y","LSD_status":"Y","LK_status":"Y","95Petrol_status":"Y","92Petrol_status":"Y"},{"s_id":"206","acct_no":"100395","sname":"B.S.I.JAYASENA","saddress":"Lanka Filling Station","scity":"Siyambalanduwa","default_depot":"LBD Badulla","slatitude":6.90676,"slongitude":81.551041,"stype":"CPC_dealer","sproducts":"LAD,LK,92Petrol","petrol_nf":"no","diesel_nf":"no","stfhours":"no","pno":"no","sdistance":"0","master_route_id":"0","master_route_name":null,"area":"","flood":"0","LAD_status":"Y","LSD_status":"N","LK_status":"N","95Petrol_status":"N","92Petrol_status":"Y"},{"s_id":"207","acct_no":"102356","sname":"W A PERERA AND SON","saddress":"LIOC Filling Station","scity":"Katugasthota","default_depot":"LBD Peradeniya","slatitude":7.319378,"slongitude":80.629829,"stype":"LIOC_dealer","sproducts":"LAD,LSD,92Petrol","petrol_nf":"no","diesel_nf":"no","stfhours":"no","pno":"no","sdistance":"0","master_route_id":"0","master_route_name":null,"area":"","flood":"0","LAD_status":"Y","LSD_status":"Y","LK_status":"N","95Petrol_status":"N","92Petrol_status":"Y"},{"s_id":"208","acct_no":"102357","sname":"A W DAVITH APPUHAMY AND SONS","saddress":"LIOC Filling Station","scity":"Kandy","default_depot":"LBD Peradeniya","slatitude":7.296781,"slongitude":80.636742,"stype":"LIOC_dealer","sproducts":"LAD,92Petrol","petrol_nf":"no","diesel_nf":"no","stfhours":"no","pno":"no","sdistance":"0","master_route_id":"0","master_route_name":null,"area":"","flood":"0","LAD_status":"Y","LSD_status":"N","LK_status":"N","95Petrol_status":"N","92Petrol_status":"Y"},{"s_id":"209","acct_no":"102358","sname":"P G W SAMARASEKARA","saddress":"LIOC Filling Station","scity":"Kandy","default_depot":"LBD Peradeniya","slatitude":7.274158,"slongitude":80.609924,"stype":"LIOC_dealer","sproducts":"LAD,92Petrol","petrol_nf":"no","diesel_nf":"no","stfhours":"no","pno":"no","sdistance":"0","master_route_id":"0","master_route_name":null,"area":"","flood":"0","LAD_status":"Y","LSD_status":"N","LK_status":"N","95Petrol_status":"N","92Petrol_status":"Y"},{"s_id":"210","acct_no":"103562","sname":"ENZ LAB (PRIVATE) LTD","saddress":"Lanka Filling Station","scity":"Kandy","default_depot":"LBD Peradeniya","slatitude":7.313362,"slongitude":80.632599,"stype":"CPC_dealer","sproducts":"LAD,LSD,95Petrol,92Petrol","petrol_nf":"yes","diesel_nf":"no","stfhours":"no","pno":"no","sdistance":"0","master_route_id":"0","master_route_name":null,"area":"","flood":"0","LAD_status":"Y","LSD_status":"Y","LK_status":"N","95Petrol_status":"Y","92Petrol_status":"Y"},{"s_id":"211","acct_no":"100100","sname":"MAHANUWARA MPCS LTD","saddress":"Lanka Filling Station","scity":"Kandy","default_depot":"LBD Peradeniya","slatitude":7.290764,"slongitude":80.631004,"stype":"CPC_dealer","sproducts":"LAD,92Petrol","petrol_nf":"no","diesel_nf":"no","stfhours":"no","pno":"no","sdistance":"0","master_route_id":"0","master_route_name":null,"area":"","flood":"0","LAD_status":"Y","LSD_status":"N","LK_status":"N","95Petrol_status":"N","92Petrol_status":"Y"},{"s_id":"212","acct_no":"100078","sname":"LAUGHS AUTO LP GAS STATION","saddress":"Lanka Filling Station","scity":"Kandy","default_depot":"LBD Peradeniya","slatitude":7.279368,"slongitude":80.620071,"stype":"CPC_dealer","sproducts":"95Petrol,92Petrol","petrol_nf":"yes","diesel_nf":"no","stfhours":"no","pno":"no","sdistance":"0","master_route_id":"0","master_route_name":null,"area":"","flood":"0","LAD_status":"N","LSD_status":"N","LK_status":"N","95Petrol_status":"Y","92Petrol_status":"Y"},{"s_id":"213","acct_no":"100187","sname":"ELLEPOLA ENTERPRISES","saddress":"Lanka Filling Station","scity":"Kandy","default_depot":"LBD Peradeniya","slatitude":7.296035,"slongitude":80.635941,"stype":"CPC_dealer","sproducts":"LAD,LK,92Petrol","petrol_nf":"no","diesel_nf":"no","stfhours":"no","pno":"no","sdistance":"0","master_route_id":"0","master_route_name":null,"area":"","flood":"0","LAD_status":"Y","LSD_status":"N","LK_status":"Y","95Petrol_status":"N","92Petrol_status":"Y"},{"s_id":"214","acct_no":"102922","sname":"D.P.KUMARAGE","saddress":"Lanka Filling Station","scity":"Kandy","default_depot":"LBD Peradeniya","slatitude":7.283401,"slongitude":80.625626,"stype":"CPC_dealer","sproducts":"LAD,LSD,LK,95Petrol,92Petrol","petrol_nf":"yes","diesel_nf":"no","stfhours":"no","pno":"no","sdistance":"0","master_route_id":"0","master_route_name":null,"area":"","flood":"0","LAD_status":"Y","LSD_status":"Y","LK_status":"N","95Petrol_status":"Y","92Petrol_status":"Y"},{"s_id":"215","acct_no":"100718","sname":"P A.INDRASENA","saddress":"Galgamuwa Road,meegalawa","scity":"Meegalawa","default_depot":"Muthurajawela Terminal","slatitude":8.055628,"slongitude":80.355034,"stype":"CPC_dealer","sproducts":"LAD,LK,92Petrol","petrol_nf":"","diesel_nf":"","stfhours":"","pno":"","sdistance":"0","master_route_id":"0","master_route_name":null,"area":"","flood":"0","LAD_status":"Y","LSD_status":"N","LK_status":"Y","95Petrol_status":"N","92Petrol_status":"Y"},{"s_id":"216","acct_no":"100611","sname":"B.M.S.BANDARANAYAKE","saddress":"Mahagalkaduwawa,galgamuwa","scity":"Galgamuwa","default_depot":"Muthurajawela Terminal","slatitude":8.047183,"slongitude":80.282806,"stype":"CPC_dealer","sproducts":"LAD,LK,95Petrol,92Petrol","petrol_nf":"","diesel_nf":"","stfhours":"","pno":"","sdistance":"0","master_route_id":"0","master_route_name":null,"area":"","flood":"0","LAD_status":"Y","LSD_status":"N","LK_status":"Y","95Petrol_status":"Y","92Petrol_status":"Y"},{"s_id":"2844","acct_no":"105723","sname":"Lanka Filling Station ","saddress":"BINGIRIYA","scity":"BINGIRIYA","default_depot":"Kolonnawa Terminal","slatitude":7.596892,"slongitude":79.952881,"stype":"CPC_dealer","sproducts":"lad","petrol_nf":"","diesel_nf":"","stfhours":"no","pno":"no","sdistance":"0","master_route_id":"0","master_route_name":null,"area":"WES","flood":"0","LAD_status":"Y","LSD_status":"N","LK_status":"Y","95Petrol_status":"N","92Petrol_status":"Y"},{"s_id":"218","acct_no":"100513","sname":"POLPITIGAMA MPCS LTD","saddress":"Madaglla Road,polpithigama","scity":"Polpithigama","default_depot":"LBD Kurunegala","slatitude":7.824348,"slongitude":80.404816,"stype":"CPC_dealer","sproducts":"LAD,LK,92Petrol","petrol_nf":"","diesel_nf":"","stfhours":"no","pno":"no","sdistance":"45.359","master_route_id":"0","master_route_name":null,"area":"","flood":"0","LAD_status":"Y","LSD_status":"N","LK_status":"Y","95Petrol_status":"N","92Petrol_status":"Y"},{"s_id":"1598","acct_no":"100221","sname":"SUNRAY ENGINEERING","saddress":"Batuwatta","scity":"Batuwatta","default_depot":"Muthurajawela Terminal","slatitude":7.052731,"slongitude":79.936295,"stype":"CPC_dealer","sproducts":"LAD,92Petrol","petrol_nf":"no","diesel_nf":"no","stfhours":"no","pno":"no","sdistance":"0","master_route_id":"0","master_route_name":null,"area":"","flood":"0","LAD_status":"Y","LSD_status":"N","LK_status":"N","95Petrol_status":"N","92Petrol_status":"Y"},{"s_id":"220","acct_no":"102401","sname":"BINGIRIYA MPCS LTD","saddress":"Wariyapola Road,bingiriya","scity":"Bingiriya","default_depot":"Muthurajawela Terminal","slatitude":7.597897,"slongitude":79.941681,"stype":"LIOC_dealer","sproducts":"LAD,92Petrol","petrol_nf":"no","diesel_nf":"no","stfhours":"no","pno":"no","sdistance":"0","master_route_id":"0","master_route_name":null,"area":"","flood":"0","LAD_status":"Y","LSD_status":"Y","LK_status":"N","95Petrol_status":"N","92Petrol_status":"Y"},{"s_id":"222","acct_no":"100496","sname":"KOTADENIYAWA MPCS LTD","saddress":"Colombo Road,kotadeniyawa","scity":"Kotadeniyawa","default_depot":"Muthurajawela Terminal","slatitude":7.284238,"slongitude":80.065155,"stype":"CPC_dealer","sproducts":"LAD,LSD,LK,95Petrol,92Petrol","petrol_nf":"","diesel_nf":"","stfhours":"","pno":"","sdistance":"0","master_route_id":"0","master_route_name":null,"area":"","flood":"0","LAD_status":"Y","LSD_status":"Y","LK_status":"Y","95Petrol_status":"Y","92Petrol_status":"Y"},{"s_id":"223","acct_no":"103387","sname":"UDAYANTHA JAGATH MANCHANAYAKE","saddress":"Giriulla Road,loluwagoda","scity":"Loluwagoda","default_depot":"Muthurajawela Terminal","slatitude":7.291926,"slongitude":80.133949,"stype":"CPC_dealer","sproducts":"LAD,92Petrol","petrol_nf":"","diesel_nf":"","stfhours":"no","pno":"no","sdistance":"0","master_route_id":"0","master_route_name":null,"area":"","flood":"0","LAD_status":"Y","LSD_status":"N","LK_status":"N","95Petrol_status":"N","92Petrol_status":"Y"},{"s_id":"224","acct_no":"103518","sname":"B. M. A. V. MAPA","saddress":"Kandy Road,mudungoda","scity":"Mudungoda","default_depot":"Muthurajawela Terminal","slatitude":7.061519,"slongitude":80.010208,"stype":"CPC_dealer","sproducts":"LAD,LSD,95Petrol,92Petrol","petrol_nf":"","diesel_nf":"","stfhours":"","pno":"","sdistance":"0","master_route_id":"0","master_route_name":null,"area":"","flood":"0","LAD_status":"Y","LSD_status":"Y","LK_status":"N","95Petrol_status":"Y","92Petrol_status":"Y"},{"s_id":"225","acct_no":"100548","sname":"GAMPAHA MPCS LTD","saddress":"No 29,kandy Road,yakkala","scity":"Yakkala","default_depot":"Muthurajawela Terminal","slatitude":7.085255,"slongitude":80.032829,"stype":"CPC_dealer","sproducts":"92Petrol","petrol_nf":"","diesel_nf":"","stfhours":"","pno":"","sdistance":"0","master_route_id":"0","master_route_name":null,"area":"","flood":"0","LAD_status":null,"LSD_status":null,"LK_status":null,"95Petrol_status":null,"92Petrol_status":null},{"s_id":"226","acct_no":"100477","sname":"SENANAYAKE PIRAVUMPOLA","saddress":"No.33, Kandy Road,yakkala","scity":"Yakkala","default_depot":"Muthurajawela Terminal","slatitude":7.088167,"slongitude":80.03511,"stype":"CPC_dealer","sproducts":"LAD,LSD,95Petrol,92Petrol","petrol_nf":"","diesel_nf":"","stfhours":"","pno":"","sdistance":"0","master_route_id":"0","master_route_name":null,"area":"","flood":"0","LAD_status":"Y","LSD_status":"Y","LK_status":"N","95Petrol_status":"Y","92Petrol_status":"Y"},{"s_id":"227","acct_no":"100522","sname":"S.C.SIRIWARDENE","saddress":"No.120, Kandy Road,thihariya","scity":"Thihariya","default_depot":"Muthurajawela Terminal","slatitude":7.126758,"slongitude":80.0709,"stype":"CPC_dealer","sproducts":"LAD,LK,92Petrol","petrol_nf":"","diesel_nf":"","stfhours":"","pno":"","sdistance":"0","master_route_id":"0","master_route_name":null,"area":"","flood":"0","LAD_status":"Y","LSD_status":"N","LK_status":"Y","95Petrol_status":"N","92Petrol_status":"Y"},{"s_id":"228","acct_no":"100451","sname":"K.P.SIRIWARDENA ENTERPRISES","saddress":"Kandy Road,weweldeniya","scity":"Weweldeniya","default_depot":"Muthurajawela Terminal","slatitude":7.197897,"slongitude":80.154739,"stype":"CPC_dealer","sproducts":"LAD,LSD,LK,95Petrol,92Petrol","petrol_nf":"","diesel_nf":"","stfhours":"","pno":"","sdistance":"0","master_route_id":"0","master_route_name":null,"area":"","flood":"0","LAD_status":"Y","LSD_status":"Y","LK_status":"Y","95Petrol_status":"Y","92Petrol_status":"Y"},{"s_id":"229","acct_no":"104314","sname":"S N KANDANAARACHCHI","saddress":"LFS","scity":"Weweldeniya","default_depot":"Muthurajawela Terminal","slatitude":7.192987,"slongitude":80.151901,"stype":"CPC_dealer","sproducts":"LAD,LSD,LK,95Petrol,92Petrol","petrol_nf":"no","diesel_nf":"no","stfhours":"no","pno":"no","sdistance":"0","master_route_id":"0","master_route_name":null,"area":"","flood":"0","LAD_status":"Y","LSD_status":"Y","LK_status":"Y","95Petrol_status":"Y","92Petrol_status":"Y"},{"s_id":"230","acct_no":"102345","sname":"M A M ABDUL HASSEN AND SONS","saddress":"Kandy Road,warakapola","scity":"Warakapola","default_depot":"Muthurajawela Terminal","slatitude":7.227605,"slongitude":80.200279,"stype":"LIOC_dealer","sproducts":"LAD,LSD,92Petrol","petrol_nf":"no","diesel_nf":"no","stfhours":"no","pno":"no","sdistance":"0","master_route_id":"0","master_route_name":null,"area":"","flood":"0","LAD_status":"Y","LSD_status":"Y","LK_status":"N","95Petrol_status":"N","92Petrol_status":"Y"},{"s_id":"231","acct_no":"100637","sname":"WARAKAPOLA MPCS LTD","saddress":"No.157, Kandy Road,warakapola","scity":"Warakapola","default_depot":"Muthurajawela Terminal","slatitude":7.230469,"slongitude":80.201935,"stype":"CPC_dealer","sproducts":"LAD,LK,92Petrol","petrol_nf":"","diesel_nf":"","stfhours":"","pno":"","sdistance":"0","master_route_id":"0","master_route_name":null,"area":"","flood":"0","LAD_status":"Y","LSD_status":"N","LK_status":"Y","95Petrol_status":"N","92Petrol_status":"Y"},{"s_id":"2023","acct_no":"100612","sname":"RAMBUKKANA MPCS LTD","saddress":"Lanka Filling Station","scity":"Rambukkana","default_depot":"Muthurajawela Terminal","slatitude":7.323245,"slongitude":80.39576,"stype":"CPC_dealer","sproducts":"LAD,LK,92Petrol","petrol_nf":"no","diesel_nf":"no","stfhours":"no","pno":"no","sdistance":"0","master_route_id":"0","master_route_name":null,"area":"","flood":"0","LAD_status":"Y","LSD_status":"N","LK_status":"Y","95Petrol_status":"N","92Petrol_status":"Y"},{"s_id":"233","acct_no":"100371","sname":"MRS. D A CHANDANI DHAMMEARACHCHI ","saddress":"No.112a,kandy Road, Karandupona ,kegalle","scity":"Kegalle","default_depot":"Peradeniya","slatitude":7.254183,"slongitude":80.384132,"stype":"CPC_dealer","sproducts":"LAD,95Petrol,92Petrol","petrol_nf":"","diesel_nf":"","stfhours":"","pno":"","sdistance":"0","master_route_id":"0","master_route_name":null,"area":"","flood":"0","LAD_status":"Y","LSD_status":"N","LK_status":"N","95Petrol_status":"Y","92Petrol_status":"Y"},{"s_id":"234","acct_no":"100763","sname":"MR. A M A ABOOBUCKER LEBBE AND SONS","saddress":"No.55a, Hammathagama Road,mawanella","scity":"Mawanella","default_depot":"Muthurajawela Terminal","slatitude":7.250819,"slongitude":80.446442,"stype":"CPC_dealer","sproducts":"LK,","petrol_nf":"no","diesel_nf":"no","stfhours":"no","pno":"no","sdistance":"0","master_route_id":"1","master_route_name":null,"area":"","flood":"0","LAD_status":"N","LSD_status":"N","LK_status":"Y","95Petrol_status":"N","92Petrol_status":"N"},{"s_id":"235","acct_no":"101419","sname":"SL TRANSPORT BOARD-MAWANELLA","saddress":"Kandy Road,mawanella","scity":"Mawanella","default_depot":"Kolonnawa Terminal","slatitude":7.250976,"slongitude":80.450562,"stype":"CPC_consumer","sproducts":"LAD,","petrol_nf":"no","diesel_nf":"no","stfhours":"no","pno":"no","sdistance":"0","master_route_id":"0","master_route_name":null,"area":"","flood":"0","LAD_status":"Y","LSD_status":"N","LK_status":"N","95Petrol_status":"N","92Petrol_status":"N"},{"s_id":"236","acct_no":"100017","sname":"U.B.ABEYSUNDERA","saddress":"Kadugannawa","scity":"Kadugannawa","default_depot":"LBD Peradeniya","slatitude":7.257082,"slongitude":80.519066,"stype":"CPC_dealer","sproducts":"LAD,LK,92Petrol","petrol_nf":"no","diesel_nf":"no","stfhours":"no","pno":"no","sdistance":"0","master_route_id":"0","master_route_name":null,"area":"","flood":"0","LAD_status":"Y","LSD_status":"N","LK_status":"Y","95Petrol_status":"N","92Petrol_status":"Y"},{"s_id":"237","acct_no":"100464","sname":"W.L.BABASENA","saddress":"No.794, Dippitiya,aranayake","scity":"Aranayake","default_depot":"Muthurajawela Terminal","slatitude":7.17405,"slongitude":80.458412,"stype":"CPC_dealer","sproducts":"LAD,LK,92Petrol","petrol_nf":"","diesel_nf":"","stfhours":"","pno":"","sdistance":"0","master_route_id":"0","master_route_name":null,"area":"","flood":"0","LAD_status":"Y","LSD_status":"N","LK_status":"Y","95Petrol_status":"N","92Petrol_status":"Y"},{"s_id":"238","acct_no":"100011","sname":"HEWAGAMKORALE WEST MPCS LTD","saddress":"Colombo - Hanwella Road,kaduwela","scity":"Kaduwela","default_depot":"Kolonnawa","slatitude":6.935968,"slongitude":79.984192,"stype":"CPC_dealer","sproducts":"LAD,LK,92Petrol","petrol_nf":"","diesel_nf":"","stfhours":"","pno":"","sdistance":"0","master_route_id":"0","master_route_name":null,"area":"","flood":"2","LAD_status":"Y","LSD_status":"N","LK_status":"Y","95Petrol_status":"N","92Petrol_status":"Y"},{"s_id":"239","acct_no":"100619","sname":"RAMYA CHANDRASEELI WICKREMARACHCHI","saddress":"No. 107,avissawella Road,kaduwela","scity":"Kaduwela","default_depot":"Kolonnawa","slatitude":6.936655,"slongitude":79.980896,"stype":"CPC_dealer","sproducts":"LAD,LSD,LK,95Petrol,92Petrol","petrol_nf":"","diesel_nf":"","stfhours":"","pno":"","sdistance":"0","master_route_id":"0","master_route_name":null,"area":"","flood":"2","LAD_status":"Y","LSD_status":"Y","LK_status":"Y","95Petrol_status":"Y","92Petrol_status":"Y"},{"s_id":"240","acct_no":"104171","sname":"SHAKTHI LANKA OIL AND GAS (PVT) LTD","saddress":"Kothalawala -kaduwela","scity":"Kothalawala -kaduwela","default_depot":"Kolonnawa","slatitude":6.926424,"slongitude":79.98011,"stype":"CPC_dealer","sproducts":"LAD,LSD,LK,95Petrol,92Petrol","petrol_nf":"","diesel_nf":"","stfhours":"","pno":"","sdistance":"0","master_route_id":"0","master_route_name":null,"area":"","flood":"0","LAD_status":"Y","LSD_status":"Y","LK_status":"Y","95Petrol_status":"Y","92Petrol_status":"Y"},